[
  {
    "name": "Berlin Zoo",
    "address": "Hardenbergplatz 8",
    "lat": 52.5079196,
    "lng": 13.3377546,
    "popularity": 24104
  },
  {
    "name": "Reichstag",
    "address": "Platz der Republik 1",
    "lat": 52.5186202,
    "lng": 13.3761871,
    "popularity": 21606
  },
  {
    "name": "Potsdamer Platz",
    "address": "Alte Potsdamer Strasse",
    "lat": 52.5096488,
    "lng": 13.3759441,
    "popularity": 18735
  },
  {
    "name": "Tiergarten",
    "address": "Strasse des 17 Juni",
    "lat": 52.5144898,
    "lng": 13.3500906,
    "popularity": 18220
  },
  {
    "name": "Brandenburger Tor",
    "address": "Pariser Platz",
    "lat": 52.5162746,
    "lng": 13.377704,
    "popularity": 15467
  },
  {
    "name": "Fernsehturm",
    "address": "Panoramastrasse 1a",
    "lat": 52.520815,
    "lng": 13.409419,
    "popularity": 15350
  },
  {
    "name": "Berliner Dom",
    "address": "Am Lustgarten",
    "lat": 52.5190608,
    "lng": 13.401078,
    "popularity": 12345
  },
  {
    "name": "Museumsinsel",
    "address": "",
    "lat": 52.5169328,
    "lng": 13.4018996,
    "popularity": 9007
  },
  {
    "name": "East Side Gallery",
    "address": "Mühlenstrasse btwn Oberbaumbrücke & Ostbahnhof",
    "lat": 52.50502239999999,
    "lng": 13.4396953,
    "popularity": 7681
  },
  {
    "name": "Sony Center",
    "address": "Potsdamer Strasse",
    "lat": 52.5098907,
    "lng": 13.3732743,
    "popularity": 7484
  },
  {
    "name": "Gendarmenmarkt",
    "address": "",
    "lat": 52.5137224,
    "lng": 13.3926698,
    "popularity": 6240
  },
  {
    "name": "Pergamonmuseum",
    "address": "Bodestrasse 1-3",
    "lat": 52.521183,
    "lng": 13.3969,
    "popularity": 6087
  },
  {
    "name": "Olympiastadion",
    "address": "Olympischer Platz 3",
    "lat": 52.5146971,
    "lng": 13.2394986,
    "popularity": 5848
  },
  {
    "name": "Holocaust Memorial",
    "address": "Cora-Berliner-Strasse 1",
    "lat": 52.5139474,
    "lng": 13.3787126,
    "popularity": 5746
  },
  {
    "name": "Checkpoint Charlie",
    "address": "cnr Zimmerstrasse & Friedrichstrasse",
    "lat": 52.5075927,
    "lng": 13.3903685,
    "popularity": 5298
  },
  {
    "name": "Kurfürstendamm",
    "address": "Kurfürstendamm",
    "lat": 52.50029439999999,
    "lng": 13.3107046,
    "popularity": 5081
  },
  {
    "name": "The Gate",
    "address": "Pariser Platz 4a",
    "lat": 52.5162746,
    "lng": 13.377704,
    "popularity": 4737
  },
  {
    "name": "Siegessäule",
    "address": "Grosser Stern",
    "lat": 52.5145434,
    "lng": 13.3501189,
    "popularity": 4702
  },
  {
    "name": "Tierpark Berlin",
    "address": "",
    "lat": 52.5023038,
    "lng": 13.5313559,
    "popularity": 4298
  },
  {
    "name": "Altes Museum",
    "address": "Am Lustgarten",
    "lat": 52.5194665,
    "lng": 13.3987445,
    "popularity": 4033
  },
  {
    "name": "Schloss Charlottenburg",
    "address": "Spandauer Damm 10-22",
    "lat": 52.5209319,
    "lng": 13.2956165,
    "popularity": 3952
  },
  {
    "name": "Pariser Platz",
    "address": "Pariser Platz",
    "lat": 52.5163857,
    "lng": 13.3788362,
    "popularity": 3917
  },
  {
    "name": "Neues Museum",
    "address": "Bodestrasse 1-3",
    "lat": 52.5201349,
    "lng": 13.3976462,
    "popularity": 3908
  },
  {
    "name": "Nikolaiviertel",
    "address": "btwn Rathausstrasse, Breite Strasse, Spandauer Strasse & Mühlendamm",
    "lat": 52.5172663,
    "lng": 13.4063205,
    "popularity": 3331
  },
  {
    "name": "Oberbaumbrücke",
    "address": "Oberbaumstrasse",
    "lat": 52.5019094,
    "lng": 13.4458845,
    "popularity": 3155
  },
  {
    "name": "Mauerpark",
    "address": "btwn Bernauer Strasse, Schwedter Strasse & Gleimstrasse",
    "lat": 52.5424,
    "lng": 13.403352,
    "popularity": 3033
  },
  {
    "name": "Berlin Aquarium",
    "address": "Budapester Strasse 32",
    "lat": 52.505987,
    "lng": 13.340836,
    "popularity": 2345
  },
  {
    "name": "Alte Nationalgalerie",
    "address": "Bodestrasse 1-3",
    "lat": 52.52081039999999,
    "lng": 13.3983529,
    "popularity": 1851
  },
  {
    "name": "Marienkirche",
    "address": "Karl-Liebknecht-Strasse 8",
    "lat": 52.5206108,
    "lng": 13.4071221,
    "popularity": 1841
  },
  {
    "name": "Karl-Marx-Allee",
    "address": "",
    "lat": 52.517821,
    "lng": 13.4338945,
    "popularity": 1783
  },
  {
    "name": "Bode-Museum",
    "address": "cnr Am Kupfergraben & Monbijoubrücke",
    "lat": 52.5218937,
    "lng": 13.3942567,
    "popularity": 1760
  },
  {
    "name": "Kaiser-Wilhelm-Gedächtniskirche",
    "address": "Breitscheidplatz",
    "lat": 52.504818,
    "lng": 13.335082,
    "popularity": 1755
  },
  {
    "name": "Konzerthaus",
    "address": "Gendarmenmarkt 2",
    "lat": 52.5136439,
    "lng": 13.3917896,
    "popularity": 1743
  },
  {
    "name": "Bundeskanzleramt",
    "address": "Willy-Brandt-Strasse 1",
    "lat": 52.52016279999999,
    "lng": 13.3692701,
    "popularity": 1682
  },
  {
    "name": "Rotes Rathaus",
    "address": "Rathausstrasse 15",
    "lat": 52.5182775,
    "lng": 13.4086443,
    "popularity": 1660
  },
  {
    "name": "Deutsches Technikmuseum",
    "address": "Trebbiner Strasse 9",
    "lat": 52.4986982,
    "lng": 13.3778846,
    "popularity": 1626
  },
  {
    "name": "Funkturm",
    "address": "Messedamm 22",
    "lat": 52.5050326,
    "lng": 13.2781892,
    "popularity": 1618
  },
  {
    "name": "Park am Gleisdreieck",
    "address": "",
    "lat": 52.49402689999999,
    "lng": 13.3759082,
    "popularity": 1588
  },
  {
    "name": "DDR Museum",
    "address": "Karl-Liebknecht-Strasse 1",
    "lat": 52.5196077,
    "lng": 13.4027331,
    "popularity": 1579
  },
  {
    "name": "Jüdisches Museum",
    "address": "Lindenstrasse 9-14",
    "lat": 52.5023115,
    "lng": 13.3954469,
    "popularity": 1560
  },
  {
    "name": "Strasse des 17 Juni",
    "address": "",
    "lat": 52.51414750000001,
    "lng": 13.3492861,
    "popularity": 1497
  },
  {
    "name": "Madame Tussauds",
    "address": "Unter den Linden 74",
    "lat": 52.5169014,
    "lng": 13.3815444,
    "popularity": 1405
  },
  {
    "name": "Gemäldegalerie",
    "address": "Matthäikirchplatz",
    "lat": 52.5090131,
    "lng": 13.3660136,
    "popularity": 1401
  },
  {
    "name": "Neue Nationalgalerie",
    "address": "Potsdamer Strasse 50",
    "lat": 52.5069946,
    "lng": 13.367604,
    "popularity": 1359
  },
  {
    "name": "Tempelhofer Feld",
    "address": "enter via Oderstrasse, Tempelhofer Damm or Columbiadamm",
    "lat": 52.47539099999999,
    "lng": 13.401893,
    "popularity": 1354
  },
  {
    "name": "Haus der Kulturen der Welt",
    "address": "John-Foster-Dulles-Allee 10",
    "lat": 52.51890849999999,
    "lng": 13.3649115,
    "popularity": 1190
  },
  {
    "name": "Nikolaikirche",
    "address": "Nikolaikirchplatz",
    "lat": 52.5168346,
    "lng": 13.4074831,
    "popularity": 1165
  },
  {
    "name": "Paul-Löbe-Haus",
    "address": "Konrad-Adenauer-Strasse",
    "lat": 52.518597,
    "lng": 13.3761031,
    "popularity": 1107
  },
  {
    "name": "Topographie des Terrors",
    "address": "Niederkirchner Strasse 8",
    "lat": 52.5066836,
    "lng": 13.3837023,
    "popularity": 1078
  },
  {
    "name": "Deutsches Historisches Museum",
    "address": "Unter den Linden 2",
    "lat": 52.5188334,
    "lng": 13.3968689,
    "popularity": 1068
  },
  {
    "name": "Neptunbrunnen",
    "address": "Rathausplatz",
    "lat": 52.5196058,
    "lng": 13.406843,
    "popularity": 1050
  },
  {
    "name": "Bebelplatz",
    "address": "Bebelplatz",
    "lat": 52.5166549,
    "lng": 13.3952785,
    "popularity": 1049
  },
  {
    "name": "Französischer Dom",
    "address": "Gendarmenmarkt",
    "lat": 52.5143953,
    "lng": 13.3923636,
    "popularity": 1048
  },
  {
    "name": "Kunsthaus Tacheles",
    "address": "Oranienburger Strasse 54-56",
    "lat": 52.5257814,
    "lng": 13.3887887,
    "popularity": 1037
  },
  {
    "name": "Kulturbrauerei",
    "address": "btwn Schönhauser Allee, Knaackstrasse, Eberswalder Strasse & Sredzskistrasse",
    "lat": 52.53925100000001,
    "lng": 13.4135533,
    "popularity": 1020
  },
  {
    "name": "Schlossgarten Charlottenburg",
    "address": "Spandauer Damm 20-24",
    "lat": 52.5209319,
    "lng": 13.2956165,
    "popularity": 1008
  },
  {
    "name": "Belvedere",
    "address": "Spandauer Damm 10-22",
    "lat": 52.52755500000001,
    "lng": 13.29533,
    "popularity": 998
  },
  {
    "name": "Deutscher Dom",
    "address": "Gendarmenmarkt 1",
    "lat": 52.5127168,
    "lng": 13.3925442,
    "popularity": 981
  },
  {
    "name": "Urban Spree",
    "address": "Revaler Strasse 99",
    "lat": 52.5076232,
    "lng": 13.4516458,
    "popularity": 935
  },
  {
    "name": "Neue Wache",
    "address": "Unter den Linden 4",
    "lat": 52.5178902,
    "lng": 13.3955281,
    "popularity": 933
  },
  {
    "name": "Volkspark Friedrichshain",
    "address": "bounded by Am Friedrichshain, Friedenstrasse, Danziger Strasse & Landsberger Allee",
    "lat": 52.5280353,
    "lng": 13.4363934,
    "popularity": 905
  },
  {
    "name": "Hackesche Höfe",
    "address": "enter from Rosenthaler Strasse 40/41 or Sophienstrasse 6",
    "lat": 52.52413809999999,
    "lng": 13.4021304,
    "popularity": 896
  },
  {
    "name": "Schlossbrücke",
    "address": "Unter den Linden",
    "lat": 52.5176509,
    "lng": 13.3985147,
    "popularity": 838
  },
  {
    "name": "Panoramapunkt",
    "address": "Potsdamer Platz 1",
    "lat": 52.50915,
    "lng": 13.375457,
    "popularity": 832
  },
  {
    "name": "Marie-Elisabeth-Lüders-Haus",
    "address": "Schiffbauerdamm",
    "lat": 52.5201917,
    "lng": 13.3783859,
    "popularity": 826
  },
  {
    "name": "Schloss Bellevue",
    "address": "Spreeweg 1",
    "lat": 52.5175726,
    "lng": 13.3527928,
    "popularity": 802
  },
  {
    "name": "Story of Berlin",
    "address": "Kurfürstendamm 207-208, enter via Ku’damm Karree mall",
    "lat": 52.50186,
    "lng": 13.32312,
    "popularity": 790
  },
  {
    "name": "Museum für Naturkunde",
    "address": "Invalidenstrasse 43",
    "lat": 52.5305726,
    "lng": 13.3791755,
    "popularity": 749
  },
  {
    "name": "Gedenkstätte Berliner Mauer",
    "address": "Bernauer Strasse btwn Schwedter Strasse & Gartenstrasse",
    "lat": 52.53505209999999,
    "lng": 13.3901898,
    "popularity": 726
  },
  {
    "name": "Stasi Prison",
    "address": "Genslerstrasse 66",
    "lat": 52.5418083,
    "lng": 13.5012746,
    "popularity": 691
  },
  {
    "name": "Neue Synagoge",
    "address": "Oranienburger Strasse 28-30",
    "lat": 52.5249168,
    "lng": 13.3941787,
    "popularity": 691
  },
  {
    "name": "C/O Berlin",
    "address": "Amerika Haus, Hardenbergstrasse 22-24",
    "lat": 52.50662999999999,
    "lng": 13.33067,
    "popularity": 648
  },
  {
    "name": "Glockenturm",
    "address": "Am Glockenturm",
    "lat": 52.5138704,
    "lng": 13.2305016,
    "popularity": 643
  },
  {
    "name": "Rathaus Schöneberg",
    "address": "John-F-Kennedy-Platz",
    "lat": 52.4849159,
    "lng": 13.3441413,
    "popularity": 582
  },
  {
    "name": "Humboldt Forum",
    "address": "Schlossplatz",
    "lat": 52.51715780000001,
    "lng": 13.3969127,
    "popularity": 578
  },
  {
    "name": "Dorotheenstädtischer Friedhof",
    "address": "Chausseestrasse 126",
    "lat": 52.5284732,
    "lng": 13.3850018,
    "popularity": 567
  },
  {
    "name": "Humboldt Universität zu Berlin",
    "address": "Unter den Linden 6",
    "lat": 52.517883,
    "lng": 13.3936551,
    "popularity": 556
  },
  {
    "name": "Museum für Kommunikation Berlin",
    "address": "Leipziger Strasse 16",
    "lat": 52.51005,
    "lng": 13.3871888,
    "popularity": 556
  },
  {
    "name": "Jüdischer Friedhof Schönhauser Allee",
    "address": "Schönhauser Allee 23-25",
    "lat": 52.5356955,
    "lng": 13.4125679,
    "popularity": 555
  },
  {
    "name": "Bauhaus Archiv",
    "address": "Klingelhöferstrasse 14",
    "lat": 52.5063628,
    "lng": 13.3537962,
    "popularity": 548
  },
  {
    "name": "St-Hedwigs-Kathedrale Berlin",
    "address": "Hinter der Katholischen Kirche 3",
    "lat": 52.5157702,
    "lng": 13.3948097,
    "popularity": 542
  },
  {
    "name": "Ramones Museum",
    "address": "Krausnickstrasse 23",
    "lat": 52.50124,
    "lng": 13.44324,
    "popularity": 537
  },
  {
    "name": "Martin-Gropius-Bau",
    "address": "Niederkirchner Strasse 7",
    "lat": 52.5066346,
    "lng": 13.3821792,
    "popularity": 522
  },
  {
    "name": "Berliner Philharmonie",
    "address": "Herbert-von-Karajan-Strasse 1",
    "lat": 52.51003189999999,
    "lng": 13.369693,
    "popularity": 510
  },
  {
    "name": "Viktoriapark",
    "address": "btwn Kreuzbergstrasse, Methfesselstrasse, Dudenstrasse & Katzbachstrasse",
    "lat": 52.4880375,
    "lng": 13.3816235,
    "popularity": 509
  },
  {
    "name": "Humboldt-Box",
    "address": "Schlossplatz 5",
    "lat": 52.51767,
    "lng": 13.400483,
    "popularity": 506
  },
  {
    "name": "Berlinische Galerie",
    "address": "Alte Jakobstrasse 124-128",
    "lat": 52.5039563,
    "lng": 13.3981579,
    "popularity": 503
  },
  {
    "name": "Europa-Center",
    "address": "Breitscheidplatz",
    "lat": 52.5045706,
    "lng": 13.3381842,
    "popularity": 495
  },
  {
    "name": "Rixdorf",
    "address": "Richardplatz",
    "lat": 52.4407709,
    "lng": 13.4445071,
    "popularity": 470
  },
  {
    "name": "Molecule Man",
    "address": "An den Treptowers 1",
    "lat": 52.4969613,
    "lng": 13.4590916,
    "popularity": 459
  },
  {
    "name": "Boxhagener Platz",
    "address": "Boxhagener Platz",
    "lat": 52.51078889999999,
    "lng": 13.4595932,
    "popularity": 436
  },
  {
    "name": "Stasimuseum",
    "address": "Haus 1, Ruschestrasse 103",
    "lat": 52.51453799999999,
    "lng": 13.487407,
    "popularity": 432
  },
  {
    "name": "Märkisches Museum",
    "address": "Am Köllnischen Park 5",
    "lat": 52.513559,
    "lng": 13.4149886,
    "popularity": 391
  },
  {
    "name": "Russian Embassy",
    "address": "Unter den Linden 63-65",
    "lat": 52.51632,
    "lng": 13.3839,
    "popularity": 381
  },
  {
    "name": "Berlin Story Museum",
    "address": "Schöneberger Strasse 23a",
    "lat": 52.50186,
    "lng": 13.32312,
    "popularity": 373
  },
  {
    "name": "Museum Berggruen",
    "address": "Schlossstrasse 1",
    "lat": 52.519109,
    "lng": 13.2953145,
    "popularity": 345
  },
  {
    "name": "Legoland Discovery Centre",
    "address": "Potsdamer Strasse 4",
    "lat": 52.50974900000001,
    "lng": 13.3723418,
    "popularity": 344
  },
  {
    "name": "Sealife Berlin",
    "address": "Spandauer Strasse 3",
    "lat": 52.5201544,
    "lng": 13.4036905,
    "popularity": 340
  },
  {
    "name": "DZ Bank",
    "address": "Pariser Platz 3",
    "lat": 52.5157617,
    "lng": 13.378976,
    "popularity": 315
  },
  {
    "name": "Museum der Dinge",
    "address": "Oranienstrasse 25",
    "lat": 52.5010652,
    "lng": 13.4206563,
    "popularity": 315
  },
  {
    "name": "Märchenbrunnen",
    "address": "cnr Am Friedrichshain & Friedenstrasse",
    "lat": 52.5279232,
    "lng": 13.4269807,
    "popularity": 313
  },
  {
    "name": "Tränenpalast",
    "address": "Reichstagufer 17",
    "lat": 52.520852,
    "lng": 13.3870969,
    "popularity": 310
  },
  {
    "name": "Sowjetisches Ehrenmal Treptow",
    "address": "Treptower Park",
    "lat": 52.48613940000001,
    "lng": 13.4719577,
    "popularity": 308
  },
  {
    "name": "Computerspielemuseum",
    "address": "Karl-Marx-Allee 93a",
    "lat": 52.5174859,
    "lng": 13.4420032,
    "popularity": 308
  },
  {
    "name": "Haus Schwarzenberg",
    "address": "Rosenthaler Strasse 39",
    "lat": 52.5242388,
    "lng": 13.4025418,
    "popularity": 290
  },
  {
    "name": "Akademie der Künste",
    "address": "Hanseatenweg 10",
    "lat": 52.51549110000001,
    "lng": 13.379177,
    "popularity": 289
  },
  {
    "name": "Friedrich-Ludwig-Jahn-Sportpark",
    "address": "Cantianstrasse 24",
    "lat": 52.54304639999999,
    "lng": 13.4087491,
    "popularity": 287
  },
  {
    "name": "Kleistpark",
    "address": "Potsdamer Strasse",
    "lat": 52.4904257,
    "lng": 13.360258,
    "popularity": 280
  },
  {
    "name": "RAW Gelände",
    "address": "along Revaler Strasse",
    "lat": 52.507676,
    "lng": 13.4534481,
    "popularity": 278
  },
  {
    "name": "Wall Memorial ‘Parlament der Bäume’",
    "address": "cnr Schiffbauerdamm & Adele-Schreiber-Krieger-Strasse",
    "lat": 52.520847,
    "lng": 13.3772774,
    "popularity": 277
  },
  {
    "name": "Körnerpark",
    "address": "Schierker Strasse 8",
    "lat": 52.47136099999999,
    "lng": 13.437907,
    "popularity": 268
  },
  {
    "name": "Kunstgewerbemuseum",
    "address": "Matthäikirchplatz",
    "lat": 52.50970460000001,
    "lng": 13.3674002,
    "popularity": 265
  },
  {
    "name": "Kollwitzplatz",
    "address": "",
    "lat": 52.54114,
    "lng": 13.44009,
    "popularity": 263
  },
  {
    "name": "Buchstabenmuseum",
    "address": "Stadtbahnbogen 424, cnr Claudiusstrasse",
    "lat": 52.5201658,
    "lng": 13.3446283,
    "popularity": 251
  },
  {
    "name": "Volkspark Humboldthain",
    "address": "Brunnenstrasse 100",
    "lat": 52.5454737,
    "lng": 13.3851243,
    "popularity": 251
  },
  {
    "name": "Schloss Charlottenburg - Mausoleum",
    "address": "Spandauer Damm 10-22",
    "lat": 52.5209319,
    "lng": 13.2956165,
    "popularity": 250
  },
  {
    "name": "Alter St Matthäus Kirchhof",
    "address": "Grossgörschenstrasse 12-14",
    "lat": 52.489943,
    "lng": 13.36729,
    "popularity": 249
  },
  {
    "name": "Sowjetisches Ehrenmal Tiergarten",
    "address": "Strasse des 17 Juni",
    "lat": 52.48613940000001,
    "lng": 13.4719577,
    "popularity": 239
  },
  {
    "name": "Staatsbibliothek zu Berlin",
    "address": "Potsdamer Strasse 33",
    "lat": 52.5076,
    "lng": 13.370814,
    "popularity": 236
  },
  {
    "name": "Insel der Jugend",
    "address": "Alt-Treptow 6",
    "lat": 52.487222,
    "lng": 13.480556,
    "popularity": 235
  },
  {
    "name": "Schloss Charlottenburg - Altes Schloss",
    "address": "Spandauer Damm 10-22",
    "lat": 52.520939,
    "lng": 13.295645,
    "popularity": 232
  },
  {
    "name": "Staatsoper Unter den Linden",
    "address": "Bebelplatz",
    "lat": 52.51682599999999,
    "lng": 13.3947124,
    "popularity": 222
  },
  {
    "name": "German Spy Museum",
    "address": "Leipziger Platz 9",
    "lat": 52.508986,
    "lng": 13.37927,
    "popularity": 222
  },
  {
    "name": "Me Collectors Room",
    "address": "Auguststrasse 68",
    "lat": 52.5268514,
    "lng": 13.3952543,
    "popularity": 219
  },
  {
    "name": "Wall Museum East Side Gallery",
    "address": "Mühlenstrasse 78",
    "lat": 52.5027008,
    "lng": 13.4453211,
    "popularity": 213
  },
  {
    "name": "Hitler’s Bunker",
    "address": "cnr In den Ministergärten & Gertrud-Kolmar-Strasse",
    "lat": 52.512688,
    "lng": 13.3811053,
    "popularity": 202
  },
  {
    "name": "Kammergericht",
    "address": "Elssholzstrasse 30-33",
    "lat": 52.4928068,
    "lng": 13.3567515,
    "popularity": 198
  },
  {
    "name": "Matthäuskirche",
    "address": "Matthäikirchplatz",
    "lat": 52.5079408,
    "lng": 13.3675176,
    "popularity": 197
  },
  {
    "name": "Berlin Wall Segments",
    "address": "Potsdamer Platz",
    "lat": 52.50502239999999,
    "lng": 13.4396953,
    "popularity": 196
  },
  {
    "name": "Ort der Information",
    "address": "Cora-Berliner-Strasse 1",
    "lat": 52.5139474,
    "lng": 13.3787126,
    "popularity": 193
  },
  {
    "name": "Bröhan Museum",
    "address": "Schlossstrasse 1a",
    "lat": 52.518865,
    "lng": 13.2953426,
    "popularity": 192
  },
  {
    "name": "Mauermuseum",
    "address": "Friedrichstrasse 43-45",
    "lat": 52.507161,
    "lng": 13.39073,
    "popularity": 192
  },
  {
    "name": "Alte Bibliothek",
    "address": "Bebelplatz",
    "lat": 52.5164553,
    "lng": 13.3931391,
    "popularity": 189
  },
  {
    "name": "Sammlung Scharf-Gerstenberg",
    "address": "Schlossstrasse 70",
    "lat": 52.5192022,
    "lng": 13.2966727,
    "popularity": 188
  },
  {
    "name": "Museum the Kennedys",
    "address": "Auguststrasse 11-13",
    "lat": 52.526362,
    "lng": 13.394468,
    "popularity": 185
  },
  {
    "name": "Staatsratsgebäude",
    "address": "Schlossplatz 1",
    "lat": 52.5157068,
    "lng": 13.4014644,
    "popularity": 183
  },
  {
    "name": "Kupferstichkabinett",
    "address": "Matthäikirchplatz",
    "lat": 52.50844920000001,
    "lng": 13.3666783,
    "popularity": 180
  },
  {
    "name": "KW Institute for Contemporary Art",
    "address": "Auguststrasse 69",
    "lat": 52.526764,
    "lng": 13.395,
    "popularity": 171
  },
  {
    "name": "Musikinstrumenten-Museum",
    "address": "Tiergartenstrasse 1, enter via Ben-Gurion-Strasse",
    "lat": 52.5102531,
    "lng": 13.371099,
    "popularity": 169
  },
  {
    "name": "Archenhold Sternwarte",
    "address": "Alt-Treptow 1",
    "lat": 52.485838,
    "lng": 13.476341,
    "popularity": 168
  },
  {
    "name": "Schloss Britz",
    "address": "Alt-Britz 73",
    "lat": 52.44696,
    "lng": 13.43781,
    "popularity": 166
  },
  {
    "name": "Künstlerhaus Bethanien",
    "address": "Kottbusser Strasse 10",
    "lat": 52.4971589,
    "lng": 13.4189702,
    "popularity": 165
  },
  {
    "name": "Anne Frank Zentrum",
    "address": "Rosenthaler Strasse 39",
    "lat": 52.5243608,
    "lng": 13.401832,
    "popularity": 165
  },
  {
    "name": "Sammlung Boros",
    "address": "Reinhardtstrasse 20",
    "lat": 52.5234035,
    "lng": 13.3841323,
    "popularity": 163
  },
  {
    "name": "Schloss Schönhausen",
    "address": "Tschaikowskistrasse 1",
    "lat": 52.578345,
    "lng": 13.405702,
    "popularity": 161
  },
  {
    "name": "Loxx am Alex Miniatur Welten Berlin",
    "address": "Grunerstrasse 20, 3rd fl, Alexa shopping mall",
    "lat": 52.518498,
    "lng": 13.4167592,
    "popularity": 160
  },
  {
    "name": "Gethsemanekirche",
    "address": "Stargarder Strasse 77",
    "lat": 52.5477035,
    "lng": 13.4161762,
    "popularity": 158
  },
  {
    "name": "Bergmannkiez",
    "address": "",
    "lat": 52.4887869,
    "lng": 13.3928533,
    "popularity": 156
  },
  {
    "name": "Historischer Hafen Berlin",
    "address": "Märkisches Ufer",
    "lat": 52.5131832,
    "lng": 13.4094058,
    "popularity": 154
  },
  {
    "name": "Kronprinzenpalais",
    "address": "Unter den Linden 3",
    "lat": 52.517137,
    "lng": 13.3967896,
    "popularity": 153
  },
  {
    "name": "Knoblauchhaus",
    "address": "Poststrasse 23",
    "lat": 52.5164706,
    "lng": 13.4069835,
    "popularity": 150
  },
  {
    "name": "Friedrichstadtpassagen",
    "address": "Friedrichstrasse",
    "lat": 52.5140273,
    "lng": 13.3904112,
    "popularity": 150
  },
  {
    "name": "Pfefferberg",
    "address": "Schönhauser Allee 176",
    "lat": 52.5318367,
    "lng": 13.4115291,
    "popularity": 148
  },
  {
    "name": "Deutsche Bank KunstHalle",
    "address": "Unter den Linden 13-15",
    "lat": 52.5168167,
    "lng": 13.3910975,
    "popularity": 147
  },
  {
    "name": "Boulevard der Stars",
    "address": "Potsdamer Strasse",
    "lat": 52.5093572,
    "lng": 13.3745731,
    "popularity": 147
  },
  {
    "name": "Wohnstadt Carl Legien",
    "address": "Erich-Weinert-Strasse, Georg-Blank-Strasse, Gubitzstrasse, Küselstrasse, Lindenhoekweg, Sodtkestrasse, Sültstrasse, Trachtenbrodtstrasse",
    "lat": 52.54595519999999,
    "lng": 13.4341583,
    "popularity": 147
  },
  {
    "name": "Luftbrückendenkmal",
    "address": "Platz der Luftbrücke",
    "lat": 52.4841372,
    "lng": 13.3873471,
    "popularity": 143
  },
  {
    "name": "Gedenkstätte Plötzensee",
    "address": "Hüttigpfad",
    "lat": 52.5407,
    "lng": 13.32237,
    "popularity": 142
  },
  {
    "name": "Gedenkstätte Deutscher Widerstand",
    "address": "Stauffenbergstrasse 13-14, enter via courtyard",
    "lat": 52.5077126,
    "lng": 13.3626739,
    "popularity": 142
  },
  {
    "name": "Berlin Dungeon",
    "address": "Spandauer Strasse 2",
    "lat": 52.5213683,
    "lng": 13.4037015,
    "popularity": 141
  },
  {
    "name": "Trabi Museum",
    "address": "Zimmerstrasse 14-15",
    "lat": 52.507481,
    "lng": 13.3889097,
    "popularity": 141
  },
  {
    "name": "Zeiss Grossplanetarium",
    "address": "Prenzlauer Allee 80",
    "lat": 52.543048,
    "lng": 13.428001,
    "popularity": 137
  },
  {
    "name": "Neuer Marstall",
    "address": "Schlossplatz 7",
    "lat": 52.516729,
    "lng": 13.4036656,
    "popularity": 136
  },
  {
    "name": "Museum für Fotografie",
    "address": "Jebensstrasse 2",
    "lat": 52.5081484,
    "lng": 13.3321268,
    "popularity": 136
  },
  {
    "name": "Contemporary Fine Arts",
    "address": "Am Kupfergraben 10",
    "lat": 52.5193373,
    "lng": 13.3968579,
    "popularity": 136
  },
  {
    "name": "Deutsch-Russisches Museum Berlin-Karlshorst",
    "address": "Zwieseler Strasse 4",
    "lat": 52.48626609999999,
    "lng": 13.5396868,
    "popularity": 136
  },
  {
    "name": "Heckmann Höfe",
    "address": "Oranienburger Strasse 32",
    "lat": 52.5253631,
    "lng": 13.3939038,
    "popularity": 135
  },
  {
    "name": "Schloss Charlottenburg - Neuer Flügel",
    "address": "Spandauer Damm 10-22",
    "lat": 52.520939,
    "lng": 13.297876,
    "popularity": 134
  },
  {
    "name": "Hansa Studios",
    "address": "Köthener Strasse 38",
    "lat": 52.506234,
    "lng": 13.3771769,
    "popularity": 133
  },
  {
    "name": "Ephraim-Palais",
    "address": "Poststrasse 16",
    "lat": 52.515897,
    "lng": 13.407189,
    "popularity": 130
  },
  {
    "name": "Dong Xuan Center",
    "address": "Herzbergstrasse 128-139",
    "lat": 52.5283891,
    "lng": 13.4898377,
    "popularity": 130
  },
  {
    "name": "Chamissoplatz",
    "address": "",
    "lat": 52.4885364,
    "lng": 13.3916969,
    "popularity": 129
  },
  {
    "name": "Café Sibylle",
    "address": "Karl-Marx-Allee 72",
    "lat": 52.51729599999999,
    "lng": 13.43699,
    "popularity": 127
  },
  {
    "name": "Science Center Spectrum",
    "address": "Möckernstrasse 26",
    "lat": 52.498124,
    "lng": 13.3793032,
    "popularity": 126
  },
  {
    "name": "Denkmal für die im Nationalsozialismus verfolgten Homosexuellen",
    "address": "Ebertstrasse",
    "lat": 52.513261,
    "lng": 13.376123,
    "popularity": 125
  },
  {
    "name": "Prinzessinnengärten",
    "address": "Prinzenstrasse 35-38, Moritzplatz",
    "lat": 52.50311139999999,
    "lng": 13.411064,
    "popularity": 124
  },
  {
    "name": "Monsterkabinett",
    "address": "Rosenthaler Strasse 39, 2nd courtyard",
    "lat": 52.5242385,
    "lng": 13.4023903,
    "popularity": 124
  },
  {
    "name": "Block der Frauen",
    "address": "Rosenstrasse",
    "lat": 52.46633,
    "lng": 13.47012,
    "popularity": 123
  },
  {
    "name": "Friedhof Grosse Hamburger Strasse",
    "address": "Grosse Hamburger Strasse 26",
    "lat": 52.5244667,
    "lng": 13.3993889,
    "popularity": 123
  },
  {
    "name": "Käthe-Kollwitz-Museum",
    "address": "Fasanenstrasse 24",
    "lat": 52.5017107,
    "lng": 13.3269588,
    "popularity": 121
  },
  {
    "name": "Denkmal für die im Nationalsozialismus ermordeten Sinti und Roma Europas",
    "address": "Scheidemannstrasse",
    "lat": 52.5173014,
    "lng": 13.3760262,
    "popularity": 121
  },
  {
    "name": "Weinhaus Huth",
    "address": "Alte Potsdamer Strasse 5",
    "lat": 52.50843949999999,
    "lng": 13.3747666,
    "popularity": 120
  },
  {
    "name": "asisi Panorama Berlin",
    "address": "Friedrichstrasse 205",
    "lat": 52.5078899,
    "lng": 13.3893327,
    "popularity": 120
  },
  {
    "name": "Boxers Sculpture",
    "address": "cnr Eichhornstrasse & Potsdamer Strasse",
    "lat": 52.4969613,
    "lng": 13.4590916,
    "popularity": 119
  },
  {
    "name": "Schloss Charlottenburg - Neuer Pavillon",
    "address": "Spandauer Damm 10-22",
    "lat": 52.5209319,
    "lng": 13.2956165,
    "popularity": 118
  },
  {
    "name": "Berlin Zoo Elephant Gate Entrance",
    "address": "Budapester Strasse",
    "lat": 52.5079196,
    "lng": 13.3377546,
    "popularity": 117
  },
  {
    "name": "Daimler Contemporary Berlin",
    "address": "Alte Potsdamer Strasse 5, Weinhaus Huth, 4th fl",
    "lat": 52.5083488,
    "lng": 13.3748488,
    "popularity": 116
  },
  {
    "name": "Bethlehemskirche",
    "address": "Richardplatz 22",
    "lat": 52.4741612,
    "lng": 13.4476304,
    "popularity": 116
  },
  {
    "name": "Kunstquartier Bethanien",
    "address": "Mariannenplatz 2",
    "lat": 52.5037196,
    "lng": 13.4232402,
    "popularity": 116
  },
  {
    "name": "Georg Kolbe Museum",
    "address": "Sensburger Allee 25",
    "lat": 52.51002099999999,
    "lng": 13.254885,
    "popularity": 116
  },
  {
    "name": "Zille Museum",
    "address": "Propststrasse 11",
    "lat": 52.5165083,
    "lng": 13.4063743,
    "popularity": 116
  },
  {
    "name": "Museum für Film und Fernsehen",
    "address": "Potsdamer Strasse 2",
    "lat": 52.5099709,
    "lng": 13.3734415,
    "popularity": 116
  },
  {
    "name": "Aufbau Haus",
    "address": "Prinzenstrasse 85",
    "lat": 52.503442,
    "lng": 13.4102297,
    "popularity": 115
  },
  {
    "name": "Museum Blindenwerkstatt Otto Weidt",
    "address": "1st courtyard, Rosenthaler Strasse 39",
    "lat": 52.5242733,
    "lng": 13.4021836,
    "popularity": 114
  },
  {
    "name": "Schwules Museum",
    "address": "Lützowstrasse 73",
    "lat": 52.5043538,
    "lng": 13.3582255,
    "popularity": 114
  },
  {
    "name": "Deutsches Currywurst Museum",
    "address": "Schützenstrasse 70",
    "lat": 52.50883,
    "lng": 13.391162,
    "popularity": 113
  },
  {
    "name": "Jüdische Mädchenschule",
    "address": "Auguststrasse 11-13",
    "lat": 52.52649,
    "lng": 13.39444,
    "popularity": 111
  },
  {
    "name": "Berlin Wall Watchtower Erna-Berger-Strasse",
    "address": "Erna-Berger-Strasse",
    "lat": 52.5085337,
    "lng": 13.3797082,
    "popularity": 111
  },
  {
    "name": "Puppentheater-Museum Berlin",
    "address": "Karl-Marx-Strasse 135, rear bldg",
    "lat": 52.47743000000001,
    "lng": 13.43924,
    "popularity": 108
  },
  {
    "name": "Diplomatenviertel",
    "address": "",
    "lat": 52.50174,
    "lng": 13.31752,
    "popularity": 108
  },
  {
    "name": "Denkmal des Polnischen Soldaten und des deutschen Antifaschisten",
    "address": "Volkspark Friedrichshain, near Virchowstrasse & Margarete-Sommer-Strasse",
    "lat": 52.5287807,
    "lng": 13.437717,
    "popularity": 107
  },
  {
    "name": "Nature Morte",
    "address": "cnr Oranienstrasse & Manteuffelstrasse",
    "lat": 52.52613969999999,
    "lng": 13.4117646,
    "popularity": 107
  },
  {
    "name": "Peter Fechter Memorial",
    "address": "Zimmerstrasse",
    "lat": 52.53505209999999,
    "lng": 13.3901898,
    "popularity": 107
  },
  {
    "name": "Rixdorfer Schmiede",
    "address": "Richardplatz 28",
    "lat": 52.474233,
    "lng": 13.44618,
    "popularity": 107
  },
  {
    "name": "Tchoban Foundation - Museum für Architekturzeichnung",
    "address": "Christinenstrasse 18",
    "lat": 52.5321182,
    "lng": 13.4100018,
    "popularity": 106
  },
  {
    "name": "Reiterdenkmal Friedrich der Grosse",
    "address": "Unter den Linden 6",
    "lat": 52.51727529999999,
    "lng": 13.3927423,
    "popularity": 106
  },
  {
    "name": "Mont Klamott",
    "address": "Volkspark Friedrichshain",
    "lat": 52.5263827,
    "lng": 13.4319838,
    "popularity": 106
  },
  {
    "name": "Berliner Medizinhistorisches Museum",
    "address": "Charitéplatz 1",
    "lat": 52.52553839999999,
    "lng": 13.3744263,
    "popularity": 104
  },
  {
    "name": "Museum in der Kulturbrauerei",
    "address": "Knaackstrasse 97",
    "lat": 52.5403789,
    "lng": 13.4139838,
    "popularity": 104
  },
  {
    "name": "Jugendfarm Moritzhof",
    "address": "Schwedter Strasse 90",
    "lat": 52.54828329999999,
    "lng": 13.4003067,
    "popularity": 104
  },
  {
    "name": "Tempelhofer Feld Entrance",
    "address": "Columbiadamm",
    "lat": 52.47539099999999,
    "lng": 13.401893,
    "popularity": 103
  },
  {
    "name": "Tempelhofer Feld Entrance",
    "address": "Tempelhofer Damm",
    "lat": 52.47539099999999,
    "lng": 13.401893,
    "popularity": 103
  },
  {
    "name": "Tempelhofer Feld Entrance",
    "address": "Oderstrasse, cnr Herrfurthstrasse",
    "lat": 52.47539099999999,
    "lng": 13.401893,
    "popularity": 103
  },
  {
    "name": "Sammlung Hoffmann",
    "address": "Sophienstrasse 21",
    "lat": 52.5261743,
    "lng": 13.4011637,
    "popularity": 103
  },
  {
    "name": "Siedlung Schillerpark",
    "address": "",
    "lat": 52.5566384,
    "lng": 13.3517885,
    "popularity": 103
  },
  {
    "name": "Yellow Man Mural",
    "address": "Oppelner Strasse 3",
    "lat": 52.50008529999999,
    "lng": 13.440772,
    "popularity": 102
  },
  {
    "name": "FHXB Friedrichshain-Kreuzberg Museum",
    "address": "Adalbertstrasse 95a",
    "lat": 52.5006295,
    "lng": 13.4185786,
    "popularity": 102
  },
  {
    "name": "IM Pei Bau",
    "address": "Hinter dem Giesshaus 3",
    "lat": 52.5188334,
    "lng": 13.3968689,
    "popularity": 102
  },
  {
    "name": "Abguss-Sammlung Antiker Plastik Berlin",
    "address": "Schlossstrasse 69b",
    "lat": 52.5188576,
    "lng": 13.2974227,
    "popularity": 101
  },
  {
    "name": "BlackBox Kalter Krieg",
    "address": "Friedrichstrasse 47",
    "lat": 52.50798529999999,
    "lng": 13.3906808,
    "popularity": 101
  },
  {
    "name": "Erlebnis Europa",
    "address": "Unter den Linden 78",
    "lat": 52.5167436,
    "lng": 13.3802667,
    "popularity": 101
  },
  {
    "name": "Museum der Unerhörten Dinge",
    "address": "Crellestrasse 5-6",
    "lat": 52.48692,
    "lng": 13.35877,
    "popularity": 101
  },
  {
    "name": "Friedhof der Märzgefallenen",
    "address": "cnr Ernst-Zinna-Weg & Landsberger Allee",
    "lat": 52.5244596,
    "lng": 13.436687,
    "popularity": 101
  },
  {
    "name": "Das Verborgene Museum",
    "address": "Schlüterstrasse 70",
    "lat": 52.50802,
    "lng": 13.31865,
    "popularity": 101
  },
  {
    "name": "Gedenkstätte Günter Litfin",
    "address": "Kieler Strasse 2",
    "lat": 52.53373,
    "lng": 13.36938,
    "popularity": 101
  },
  {
    "name": "Mendelssohn Exhibit",
    "address": "Jägerstrasse 51",
    "lat": 52.5144035,
    "lng": 13.3949676,
    "popularity": 100
  },
  {
    "name": "Denkmal der Spanienkämpfer",
    "address": "Friedenstrasse",
    "lat": 52.5260319,
    "lng": 13.4297267,
    "popularity": 100
  },
  {
    "name": "Hanf Museum",
    "address": "Mühlendamm 5",
    "lat": 52.5164289,
    "lng": 13.4079955,
    "popularity": 100
  },
  {
    "name": "Kindl Centre for Contemporary Art",
    "address": "Am Sudhaus 2",
    "lat": 52.4794491,
    "lng": 13.4309241,
    "popularity": 100
  },
  {
    "name": "Grenzwachturm Schlesischer Busch",
    "address": "Am Flutgraben 3",
    "lat": 52.495145,
    "lng": 13.4489618,
    "popularity": 100
  },
  {
    "name": "Hamburger Bahnhof – Museum für Gegenwart",
    "address": "Invalidenstrasse 50-51",
    "lat": 52.5284401,
    "lng": 13.3721163,
    "popularity": 100
  },
  {
    "name": "Brecht-Weigel Gedenkstätte",
    "address": "Chausseestrasse 125",
    "lat": 52.5289015,
    "lng": 13.3846721,
    "popularity": 100
  },
  {
    "name": "Dalí – Die Ausstellung",
    "address": "Leipziger Platz 7",
    "lat": 52.5088745,
    "lng": 13.3785761,
    "popularity": 100
  },
  {
    "name": "Gedenkort Weisse Kreuze",
    "address": "Reichstagufer",
    "lat": 52.5196615,
    "lng": 13.3767772,
    "popularity": 100
  },
  {
    "name": "König Galerie @ St Agnes Kirche",
    "address": "Alexandrinenstrasse 118-121",
    "lat": 52.500573,
    "lng": 13.400558,
    "popularity": 100
  },
  {
    "name": "Weltbrunnen",
    "address": "Breitscheidplatz",
    "lat": 52.5046888,
    "lng": 13.3365058,
    "popularity": 100
  },
  {
    "name": "Park Inn Panorama Terrasse",
    "address": "Alexanderplatz 7",
    "lat": 52.5227689,
    "lng": 13.4129548,
    "popularity": 100
  },
  {
    "name": "Mahnmal im Marie-Elisabeth-Lüders-Haus",
    "address": "Schiffbauerdamm",
    "lat": 52.5201917,
    "lng": 13.3783859,
    "popularity": 100
  },
  {
    "name": "Gedenkstätte Stille Helden",
    "address": "Rosenthaler Strasse 39",
    "lat": 52.5242848,
    "lng": 13.4021617,
    "popularity": 100
  },
  {
    "name": "Labyrinth Kindermuseum",
    "address": "Osloer Strasse 12",
    "lat": 52.55614800000001,
    "lng": 13.3860125,
    "popularity": 100
  },
  {
    "name": "Akademie der Künste – Pariser Platz",
    "address": "Pariser Platz 4",
    "lat": 52.51549110000001,
    "lng": 13.379177,
    "popularity": 100
  },
  {
    "name": "Preussische Spirituosen Manufaktur",
    "address": "Seestrasse 13",
    "lat": 52.5453763,
    "lng": 13.3434643,
    "popularity": 100
  }
]
