[
  {
    "name": "Museum Africa",
    "address": "Old Market Bldg, 121 Lilian Ngoyi St (Bree St)",
    "lat": -26.2017452,
    "lng": 28.0313845,
    "popularity": 907
  },
  {
    "name": "Johannesburg Zoo",
    "address": "Jan Smuts Ave",
    "lat": -26.1665777,
    "lng": 28.0376379,
    "popularity": 553
  },
  {
    "name": "Apartheid Museum",
    "address": "cnr Gold Reef Rd & Northern Parkway",
    "lat": -26.2378709,
    "lng": 28.0083713,
    "popularity": 467
  },
  {
    "name": "Constitution Hill",
    "address": "Kotze St",
    "lat": -26.189082,
    "lng": 28.042683,
    "popularity": 302
  },
  {
    "name": "Constitutional Court",
    "address": "",
    "lat": -26.1884373,
    "lng": 28.0433059,
    "popularity": 290
  },
  {
    "name": "Gold Reef City",
    "address": "cnr Northern Parkway & Data Cres",
    "lat": -26.2360327,
    "lng": 28.0131667,
    "popularity": 281
  },
  {
    "name": "Top of Africa",
    "address": "50th fl, Carlton Centre, 150 Commissioner St",
    "lat": -26.20568,
    "lng": 28.0468225,
    "popularity": 263
  },
  {
    "name": "Arts on Main",
    "address": "264 Fox St",
    "lat": -26.2045222,
    "lng": 28.0578851,
    "popularity": 239
  },
  {
    "name": "Zoo Lake",
    "address": "Lower Park Dr",
    "lat": -26.1581653,
    "lng": 28.0284892,
    "popularity": 201
  },
  {
    "name": "Mary Fitzgerald Square",
    "address": "Rahima Moosa St (Jeppe St)",
    "lat": -26.2027465,
    "lng": 28.0313319,
    "popularity": 184
  },
  {
    "name": "Nelson Mandela Bridge",
    "address": "",
    "lat": -26.196911,
    "lng": 28.034154,
    "popularity": 177
  },
  {
    "name": "Johannesburg Art Gallery",
    "address": "Joubert Park",
    "lat": -26.197039,
    "lng": 28.047104,
    "popularity": 168
  },
  {
    "name": "Turbine Hall",
    "address": "cnr Jeppe & Miriam Makeba Sts",
    "lat": -26.203359,
    "lng": 28.034892,
    "popularity": 142
  },
  {
    "name": "South African National Museum of Military History",
    "address": "22 Erlswold Way",
    "lat": -26.16312,
    "lng": 28.0418399,
    "popularity": 139
  },
  {
    "name": "Gandhi Square",
    "address": "",
    "lat": -26.2065889,
    "lng": 28.043402,
    "popularity": 127
  },
  {
    "name": "City Hall",
    "address": "cnr Rissik & Market Sts",
    "lat": -26.2043396,
    "lng": 28.0415833,
    "popularity": 127
  },
  {
    "name": "CIRCA on Jellicoe",
    "address": "2 Jellicoe Ave",
    "lat": -26.14352,
    "lng": 28.0362162,
    "popularity": 120
  },
  {
    "name": "Telkom Tower",
    "address": "Goldreich St",
    "lat": -26.1869602,
    "lng": 28.0494833,
    "popularity": 119
  },
  {
    "name": "Emmarentia Dam",
    "address": "Olifants Rd",
    "lat": -26.150278,
    "lng": 28.005833,
    "popularity": 114
  },
  {
    "name": "Liliesleaf Farm",
    "address": "7 George Ave",
    "lat": -26.0434656,
    "lng": 28.0541,
    "popularity": 111
  },
  {
    "name": "Rissik Street Post Office",
    "address": "Rissik St",
    "lat": -26.2042626,
    "lng": 28.0422378,
    "popularity": 111
  },
  {
    "name": "Chancellor House",
    "address": "25 Fox St",
    "lat": -26.206736,
    "lng": 28.034501,
    "popularity": 109
  },
  {
    "name": "SAB World of Beer",
    "address": "15 Helen Joseph (President) St",
    "lat": -26.204535,
    "lng": 28.033758,
    "popularity": 106
  },
  {
    "name": "Wits Art Museum",
    "address": "cnr Jorissen & Bertha Sts",
    "lat": -26.1929615,
    "lng": 28.0330928,
    "popularity": 104
  },
  {
    "name": "Sci-Bono Discovery Centre",
    "address": "cnr Miriam Makeba & Helen Joseph (President) Sts",
    "lat": -26.2044165,
    "lng": 28.0329955,
    "popularity": 103
  },
  {
    "name": "Planetarium",
    "address": "Yale Rd, WITS University",
    "lat": -26.1885017,
    "lng": 28.0283552,
    "popularity": 103
  },
  {
    "name": "Origins Centre",
    "address": "cnr Yale Rd & Enoch Sontonga Ave",
    "lat": -26.1926984,
    "lng": 28.0283055,
    "popularity": 103
  },
  {
    "name": "Standard Bank Art Gallery",
    "address": "cnr Simmonds & Frederick Sts",
    "lat": -26.208593,
    "lng": 28.040151,
    "popularity": 102
  },
  {
    "name": "Joziburg Lane",
    "address": "1 Eloff St",
    "lat": -26.2114004,
    "lng": 28.0454271,
    "popularity": 102
  },
  {
    "name": "Workersâ€™ Museum",
    "address": "52 Jeppe St",
    "lat": -26.2031314,
    "lng": 28.032221,
    "popularity": 101
  },
  {
    "name": "AECI Dynamite Factory Museum",
    "address": "2 Main St",
    "lat": -26.0754212,
    "lng": 28.08845,
    "popularity": 100
  }
]
