[
  {
    "name": "Bundeshaus",
    "address": "Bundesplatz",
    "lat": 46.94654269999999,
    "lng": 7.4442543,
    "popularity": 1445
  },
  {
    "name": "M체nster",
    "address": "M체nsterplatz 1",
    "lat": 46.9472221,
    "lng": 7.451202500000001,
    "popularity": 1142
  },
  {
    "name": "Rosengarten",
    "address": "Alter Aargauerstalden",
    "lat": 46.9520529,
    "lng": 7.4604518,
    "popularity": 893
  },
  {
    "name": "Zentrum Paul Klee",
    "address": "Monument im Fruchtland 3",
    "lat": 46.948891,
    "lng": 7.474098,
    "popularity": 892
  },
  {
    "name": "Old Town",
    "address": "",
    "lat": 46.948534,
    "lng": 7.448701,
    "popularity": 857
  },
  {
    "name": "Zytglogge",
    "address": "Marktgasse",
    "lat": 46.9479744,
    "lng": 7.447791,
    "popularity": 805
  },
  {
    "name": "Historisches Museum Bern",
    "address": "Helvetiaplatz 5",
    "lat": 46.94303679999999,
    "lng": 7.449318700000001,
    "popularity": 298
  },
  {
    "name": "Kindlifresserbrunnen",
    "address": "Kornhausplatz",
    "lat": 46.9484644,
    "lng": 7.447497299999998,
    "popularity": 156
  },
  {
    "name": "Naturhistorisches Museum",
    "address": "Bernastrasse 15",
    "lat": 46.94214119999999,
    "lng": 7.448942699999999,
    "popularity": 144
  },
  {
    "name": "Museum f체r Kommunikation",
    "address": "Helvetiastrasse 16",
    "lat": 46.941801,
    "lng": 7.450036,
    "popularity": 134
  },
  {
    "name": "Kunstmuseum",
    "address": "Hodlerstrasse 8-12",
    "lat": 46.9512267,
    "lng": 7.4431927,
    "popularity": 132
  },
  {
    "name": "B채ren Park",
    "address": "",
    "lat": 46.9480065,
    "lng": 7.4596201,
    "popularity": 128
  },
  {
    "name": "Einstein-Haus Bern",
    "address": "Kramgasse 49",
    "lat": 46.9478034,
    "lng": 7.450001500000001,
    "popularity": 116
  },
  {
    "name": "University Botanical Garden",
    "address": "Altenbergrain 21",
    "lat": 46.9529964,
    "lng": 7.444712299999999,
    "popularity": 101
  },
  {
    "name": "Kindermuseum Creaviva",
    "address": "Monument im Fruchtland 3",
    "lat": 46.948891,
    "lng": 7.474098,
    "popularity": 100
  },
  {
    "name": "Schweizerisches Alpines Museum",
    "address": "Helvetiaplatz 4",
    "lat": 46.9440786,
    "lng": 7.448289600000001,
    "popularity": 100
  }
]
