[
  {
    "name": "Central Park",
    "address": "",
    "lat": 40.7828647,
    "lng": -73.9653551,
    "popularity": 109609
  },
  {
    "name": "Times Square",
    "address": "Broadway",
    "lat": 40.759011,
    "lng": -73.9844722,
    "popularity": 91366
  },
  {
    "name": "Empire State Building",
    "address": "350 Fifth Ave",
    "lat": 40.7484405,
    "lng": -73.98566439999999,
    "popularity": 59266
  },
  {
    "name": "Brooklyn Bridge",
    "address": "",
    "lat": 40.7060855,
    "lng": -73.9968643,
    "popularity": 56424
  },
  {
    "name": "Coney Island",
    "address": "Surf Ave & Boardwalk",
    "lat": 40.5755438,
    "lng": -73.9707016,
    "popularity": 47352
  },
  {
    "name": "Museum of the City of New York",
    "address": "1220 Fifth Ave",
    "lat": 40.792494,
    "lng": -73.951909,
    "popularity": 43256
  },
  {
    "name": "Metropolitan Museum of Art",
    "address": "1000 Fifth Ave",
    "lat": 40.7794366,
    "lng": -73.963244,
    "popularity": 39416
  },
  {
    "name": "Rockefeller Center",
    "address": "",
    "lat": 40.7587402,
    "lng": -73.9786736,
    "popularity": 34097
  },
  {
    "name": "High Line",
    "address": "Gansevoort St",
    "lat": 40.7479925,
    "lng": -74.0047649,
    "popularity": 32338
  },
  {
    "name": "Yankee Stadium",
    "address": "E 161st St",
    "lat": 40.8296426,
    "lng": -73.9261745,
    "popularity": 29150
  },
  {
    "name": "City Hall",
    "address": "Park Row",
    "lat": 40.7127744,
    "lng": -74.006059,
    "popularity": 26210
  },
  {
    "name": "Fifth Avenue",
    "address": "Fifth Ave",
    "lat": 40.7314123,
    "lng": -73.99698479999999,
    "popularity": 25942
  },
  {
    "name": "New York Botanical Garden",
    "address": "2900 Southern Blvd",
    "lat": 40.861704,
    "lng": -73.880342,
    "popularity": 23239
  },
  {
    "name": "Chinatown",
    "address": "",
    "lat": 40.7157509,
    "lng": -73.9970307,
    "popularity": 22224
  },
  {
    "name": "Statue of Liberty",
    "address": "Liberty Island",
    "lat": 40.6892494,
    "lng": -74.04450039999999,
    "popularity": 21341
  },
  {
    "name": "Brooklyn Botanic Garden",
    "address": "150 Eastern Pkwy",
    "lat": 40.667621,
    "lng": -73.963189,
    "popularity": 17687
  },
  {
    "name": "Union Square",
    "address": "17th St",
    "lat": 40.7358633,
    "lng": -73.9910835,
    "popularity": 17224
  },
  {
    "name": "Top of the Rock",
    "address": "30 Rockefeller Plaza",
    "lat": 40.7592454,
    "lng": -73.9793043,
    "popularity": 16951
  },
  {
    "name": "Battery Park",
    "address": "Broadway",
    "lat": 40.7032775,
    "lng": -74.0170279,
    "popularity": 16826
  },
  {
    "name": "Museum of Modern Art",
    "address": "11 W 53rd St",
    "lat": 40.7614327,
    "lng": -73.97762159999999,
    "popularity": 15649
  },
  {
    "name": "American Museum of Natural History",
    "address": "Central Park West",
    "lat": 40.7813241,
    "lng": -73.9739882,
    "popularity": 14786
  },
  {
    "name": "Bronx Zoo",
    "address": "2300 Southern Blvd",
    "lat": 40.8505949,
    "lng": -73.8769982,
    "popularity": 14533
  },
  {
    "name": "Prospect Park",
    "address": "Grand Army Plaza",
    "lat": 40.6602037,
    "lng": -73.9689558,
    "popularity": 13537
  },
  {
    "name": "Bryant Park",
    "address": "42nd St",
    "lat": 40.7535965,
    "lng": -73.9832326,
    "popularity": 13120
  },
  {
    "name": "Chrysler Building",
    "address": "405 Lexington Ave",
    "lat": 40.7516208,
    "lng": -73.97550199999999,
    "popularity": 13038
  },
  {
    "name": "Grand Central Terminal",
    "address": "89 E 42nd St",
    "lat": 40.7527262,
    "lng": -73.9772294,
    "popularity": 12755
  },
  {
    "name": "Governors Island",
    "address": "",
    "lat": 40.68945009999999,
    "lng": -74.016792,
    "popularity": 12746
  },
  {
    "name": "One World Trade Center",
    "address": "cnr West & Vesey Sts",
    "lat": 40.7127431,
    "lng": -74.0133795,
    "popularity": 10816
  },
  {
    "name": "Brooklyn Bridge Park",
    "address": "East River Waterfront",
    "lat": 40.7002913,
    "lng": -73.99669949999999,
    "popularity": 10624
  },
  {
    "name": "United Nations",
    "address": "visitors' gate First Ave at 46th St",
    "lat": 40.7488758,
    "lng": -73.9680091,
    "popularity": 9903
  },
  {
    "name": "New York University",
    "address": "information center 50 W 4th St",
    "lat": 40.72951339999999,
    "lng": -73.9964609,
    "popularity": 9096
  },
  {
    "name": "Ellis Island",
    "address": "Ellis Island",
    "lat": 40.6994748,
    "lng": -74.0395587,
    "popularity": 9088
  },
  {
    "name": "Washington Square Park",
    "address": "Fifth Ave at Washington Sq N",
    "lat": 40.7308228,
    "lng": -73.997332,
    "popularity": 8508
  },
  {
    "name": "Roosevelt Island",
    "address": "",
    "lat": 40.76050310000001,
    "lng": -73.9509934,
    "popularity": 8126
  },
  {
    "name": "Brooklyn Museum",
    "address": "200 Eastern Pkwy",
    "lat": 40.6712062,
    "lng": -73.9636306,
    "popularity": 8013
  },
  {
    "name": "Lincoln Center",
    "address": "",
    "lat": 40.7724641,
    "lng": -73.9834889,
    "popularity": 7784
  },
  {
    "name": "Madison Square Park",
    "address": "E 23rd to 26th Sts",
    "lat": 40.7420371,
    "lng": -73.9875635,
    "popularity": 7768
  },
  {
    "name": "Hudson River Park",
    "address": "",
    "lat": 40.7341636,
    "lng": -74.0111441,
    "popularity": 7730
  },
  {
    "name": "Flatiron Building",
    "address": "Broadway",
    "lat": 40.7410605,
    "lng": -73.9896986,
    "popularity": 7461
  },
  {
    "name": "Radio City Music Hall",
    "address": "1260 Sixth Ave",
    "lat": 40.75997599999999,
    "lng": -73.9799772,
    "popularity": 7420
  },
  {
    "name": "New York Public Library",
    "address": "Fifth Ave",
    "lat": 40.75318230000001,
    "lng": -73.9822534,
    "popularity": 7407
  },
  {
    "name": "Tompkins Square Park",
    "address": "E 7th & 10th Sts",
    "lat": 40.7265257,
    "lng": -73.9817372,
    "popularity": 7023
  },
  {
    "name": "Guggenheim Museum",
    "address": "1071 Fifth Ave",
    "lat": 40.7829796,
    "lng": -73.9589706,
    "popularity": 6511
  },
  {
    "name": "East River Park",
    "address": "",
    "lat": 40.7191847,
    "lng": -73.97387619999999,
    "popularity": 6080
  },
  {
    "name": "Columbia University",
    "address": "Broadway",
    "lat": 40.8075355,
    "lng": -73.9625727,
    "popularity": 6037
  },
  {
    "name": "Intrepid Sea, Air & Space Museum",
    "address": "Pier 86",
    "lat": 40.7645266,
    "lng": -73.99960759999999,
    "popularity": 5494
  },
  {
    "name": "Little Italy",
    "address": "",
    "lat": 40.7191413,
    "lng": -73.9973273,
    "popularity": 5016
  },
  {
    "name": "Central Park Zoo",
    "address": "Central Park, 64th St",
    "lat": 40.767778,
    "lng": -73.9718335,
    "popularity": 4935
  },
  {
    "name": "Flushing Meadows Corona Park",
    "address": "Grand Central Pkwy",
    "lat": 40.73971359999999,
    "lng": -73.840785,
    "popularity": 4832
  },
  {
    "name": "Riverside Park",
    "address": "Riverside Dr",
    "lat": 40.8012339,
    "lng": -73.9723096,
    "popularity": 4803
  },
  {
    "name": "Williamsburg Bridge",
    "address": "",
    "lat": 40.7127299,
    "lng": -73.9688619,
    "popularity": 4785
  },
  {
    "name": "Inwood Hill Park",
    "address": "Dyckman St",
    "lat": 40.87234480000001,
    "lng": -73.924384,
    "popularity": 4668
  },
  {
    "name": "St Patrick's Cathedral",
    "address": "Fifth Ave",
    "lat": 40.7584653,
    "lng": -73.97599269999999,
    "popularity": 4537
  },
  {
    "name": "Trinity Church",
    "address": "75 Broadway",
    "lat": 40.7080624,
    "lng": -74.0121849,
    "popularity": 4374
  },
  {
    "name": "Chelsea Market",
    "address": "75 Ninth Ave",
    "lat": 40.7421218,
    "lng": -74.005124,
    "popularity": 3924
  },
  {
    "name": "Museum of Arts & Design",
    "address": "2 Columbus Circle",
    "lat": 40.767395,
    "lng": -73.982034,
    "popularity": 3922
  },
  {
    "name": "Herald Square",
    "address": "cnr Broadway, Sixth Ave & 34th St",
    "lat": 40.750434,
    "lng": -73.986914,
    "popularity": 3859
  },
  {
    "name": "Bethesda Terrace",
    "address": "Central Park",
    "lat": 40.7738198,
    "lng": -73.9708181,
    "popularity": 3645
  },
  {
    "name": "Columbus Park",
    "address": "",
    "lat": 40.7156618,
    "lng": -73.9999961,
    "popularity": 3635
  },
  {
    "name": "Green-Wood Cemetery",
    "address": "500 25th St",
    "lat": 40.6590043,
    "lng": -73.99560199999999,
    "popularity": 3462
  },
  {
    "name": "New York Stock Exchange",
    "address": "11 Wall St",
    "lat": 40.706877,
    "lng": -74.0112654,
    "popularity": 3441
  },
  {
    "name": "Strawberry Fields",
    "address": "Central Park",
    "lat": 40.7756978,
    "lng": -73.97473149999999,
    "popularity": 3017
  },
  {
    "name": "Bethesda Fountain",
    "address": "Central Park",
    "lat": 40.7738198,
    "lng": -73.9708181,
    "popularity": 2850
  },
  {
    "name": "New York Aquarium",
    "address": "Surf Ave & W 8th St",
    "lat": 40.5743712,
    "lng": -73.9752227,
    "popularity": 2809
  },
  {
    "name": "East River State Park",
    "address": "Kent Ave",
    "lat": 40.7214081,
    "lng": -73.9620691,
    "popularity": 2738
  },
  {
    "name": "New York Transit Museum",
    "address": "Schermerhorn St",
    "lat": 40.69052749999999,
    "lng": -73.9898178,
    "popularity": 2667
  },
  {
    "name": "Queens Museum",
    "address": "Flushing Meadows Corona Park",
    "lat": 40.745794,
    "lng": -73.84675,
    "popularity": 2442
  },
  {
    "name": "Hole",
    "address": "312 Bowery",
    "lat": 40.725092,
    "lng": -73.992589,
    "popularity": 2350
  },
  {
    "name": "Brooklyn Brewery",
    "address": "79 N 11th St",
    "lat": 40.7217239,
    "lng": -73.9571722,
    "popularity": 2315
  },
  {
    "name": "Sunset Park",
    "address": "41st to 44th Sts., between 5th and 7th Aves.",
    "lat": 40.645532,
    "lng": -74.0123851,
    "popularity": 2292
  },
  {
    "name": "McCarren Park",
    "address": "776 Lorimer St",
    "lat": 40.7213441,
    "lng": -73.95263609999999,
    "popularity": 2287
  },
  {
    "name": "Gantry Plaza State Park",
    "address": "4-09 47th Rd",
    "lat": 40.7455077,
    "lng": -73.9587485,
    "popularity": 2261
  },
  {
    "name": "Artists Space",
    "address": "38 Greene St, 3rd fl",
    "lat": 40.718799,
    "lng": -74.00336899999999,
    "popularity": 2260
  },
  {
    "name": "Woolworth Building",
    "address": "233 Broadway",
    "lat": 40.71243,
    "lng": -74.0083547,
    "popularity": 2224
  },
  {
    "name": "Gateway National Recreation Area",
    "address": "",
    "lat": 40.4533066,
    "lng": -73.99553759999999,
    "popularity": 2172
  },
  {
    "name": "Conservatory Garden",
    "address": "",
    "lat": 40.7937474,
    "lng": -73.9524239,
    "popularity": 2164
  },
  {
    "name": "Unisphere",
    "address": "Flushing Meadows Park",
    "lat": 40.7463844,
    "lng": -73.84506189999999,
    "popularity": 2093
  },
  {
    "name": "Luna Park",
    "address": "Surf Ave",
    "lat": 40.57427500000001,
    "lng": -73.9785,
    "popularity": 1978
  },
  {
    "name": "Garment District",
    "address": "Seventh Ave",
    "lat": 40.7547072,
    "lng": -73.9916342,
    "popularity": 1927
  },
  {
    "name": "National September 11 Memorial",
    "address": "180 Greenwich St",
    "lat": 40.7114836,
    "lng": -74.0127254,
    "popularity": 1901
  },
  {
    "name": "New Museum of Contemporary Art",
    "address": "235 Bowery",
    "lat": 40.7223376,
    "lng": -73.9928905,
    "popularity": 1731
  },
  {
    "name": "Astor Place",
    "address": "8th St",
    "lat": 40.7298544,
    "lng": -73.9913978,
    "popularity": 1721
  },
  {
    "name": "Skyscraper Museum",
    "address": "39 Battery Pl",
    "lat": 40.705726,
    "lng": -74.01775010000001,
    "popularity": 1673
  },
  {
    "name": "Federal Hall",
    "address": "26 Wall St",
    "lat": 40.7073993,
    "lng": -74.0102088,
    "popularity": 1653
  },
  {
    "name": "Gramercy Park",
    "address": "E 20th St",
    "lat": 40.7367783,
    "lng": -73.9844722,
    "popularity": 1645
  },
  {
    "name": "St Paul's Chapel",
    "address": "209 Broadway",
    "lat": 40.7113202,
    "lng": -74.0091848,
    "popularity": 1627
  },
  {
    "name": "Museum of the Moving Image",
    "address": "36-01 35th Ave",
    "lat": 40.7563454,
    "lng": -73.9239496,
    "popularity": 1613
  },
  {
    "name": "Ramble",
    "address": "Central Park",
    "lat": 40.7773651,
    "lng": -73.96950609999999,
    "popularity": 1587
  },
  {
    "name": "Bowling Green",
    "address": "cnr Broadway & State St",
    "lat": 40.704926,
    "lng": -74.0136705,
    "popularity": 1565
  },
  {
    "name": "Fort Greene Park",
    "address": "btwn Myrtle & DeKalb Aves & Washington Park & St Edwards St",
    "lat": 40.691396,
    "lng": -73.974944,
    "popularity": 1561
  },
  {
    "name": "CBGB",
    "address": "315 Bowery",
    "lat": 40.7251397,
    "lng": -73.99188079999999,
    "popularity": 1538
  },
  {
    "name": "St Marks Place",
    "address": "St Marks Pl",
    "lat": 40.7285977,
    "lng": -73.9876718,
    "popularity": 1537
  },
  {
    "name": "Brooklyn Heights Promenade",
    "address": "btwn Orange & Remsen Sts",
    "lat": 40.6958407,
    "lng": -73.99811129999999,
    "popularity": 1517
  },
  {
    "name": "Chelsea Hotel",
    "address": "222 W 23rd St",
    "lat": 40.7466987,
    "lng": -73.9915709,
    "popularity": 1430
  },
  {
    "name": "MoMA PS1",
    "address": "22-25 Jackson Ave",
    "lat": 40.7454901,
    "lng": -73.9473572,
    "popularity": 1413
  },
  {
    "name": "Whitney Museum of American Art",
    "address": "99 Gansevoort St",
    "lat": 40.7395877,
    "lng": -74.0088629,
    "popularity": 1328
  },
  {
    "name": "Mulberry Street",
    "address": "",
    "lat": 40.7193269,
    "lng": -73.9973174,
    "popularity": 1322
  },
  {
    "name": "Bank of America Tower",
    "address": "Sixth Ave",
    "lat": 40.7556029,
    "lng": -73.9849313,
    "popularity": 1301
  },
  {
    "name": "Socrates Sculpture Park",
    "address": "32-01 Vernon Blvd",
    "lat": 40.768529,
    "lng": -73.9363495,
    "popularity": 1292
  },
  {
    "name": "Cathedral Church of St John the Divine",
    "address": "1047 Amsterdam Ave",
    "lat": 40.8038356,
    "lng": -73.9618754,
    "popularity": 1246
  },
  {
    "name": "One World Observatory",
    "address": "cnr West & Vesey Sts",
    "lat": 40.7133444,
    "lng": -74.0133677,
    "popularity": 1231
  },
  {
    "name": "Riverside Church",
    "address": "490 Riverside Dr",
    "lat": 40.8118401,
    "lng": -73.9631244,
    "popularity": 1218
  },
  {
    "name": "Drawing Center",
    "address": "35 Wooster St",
    "lat": 40.7224461,
    "lng": -74.00295729999999,
    "popularity": 1217
  },
  {
    "name": "Prospect Park Zoo",
    "address": "450 Flatbush Ave",
    "lat": 40.6653747,
    "lng": -73.9654138,
    "popularity": 1179
  },
  {
    "name": "Grand Army Plaza",
    "address": "Prospect Park, Prospect Park West & Flatbush Ave",
    "lat": 40.7645872,
    "lng": -73.9736478,
    "popularity": 1178
  },
  {
    "name": "Apollo Theater",
    "address": "253 W 125th St",
    "lat": 40.810018,
    "lng": -73.95005600000002,
    "popularity": 1143
  },
  {
    "name": "Dakota Building",
    "address": "1 W 72nd St",
    "lat": 40.77652579999999,
    "lng": -73.97614080000001,
    "popularity": 1143
  },
  {
    "name": "Museum of Chinese in America",
    "address": "215 Centre St",
    "lat": 40.7195241,
    "lng": -73.9992096,
    "popularity": 1132
  },
  {
    "name": "National September 11 Memorial Museum",
    "address": "180 Greenwich St",
    "lat": 40.7114836,
    "lng": -74.0127254,
    "popularity": 1106
  },
  {
    "name": "Jacqueline Kennedy Onassis Reservoir",
    "address": "Btwn East & West Drvs",
    "lat": 40.785719,
    "lng": -73.9639021,
    "popularity": 1081
  },
  {
    "name": "Jane’s Carousel",
    "address": "Brooklyn Bridge Park, Empire Fulton Ferry",
    "lat": 40.7044297,
    "lng": -73.99238629999999,
    "popularity": 1034
  },
  {
    "name": "Bronx Museum",
    "address": "1040 Grand Concourse",
    "lat": 40.83101200000001,
    "lng": -73.919724,
    "popularity": 1029
  },
  {
    "name": "Belmont",
    "address": "",
    "lat": 40.8523198,
    "lng": -73.88601,
    "popularity": 987
  },
  {
    "name": "New York City Fire Museum",
    "address": "278 Spring St",
    "lat": 40.7255619,
    "lng": -74.006935,
    "popularity": 972
  },
  {
    "name": "New-York Historical Society",
    "address": "170 Central Park West",
    "lat": 40.779306,
    "lng": -73.97426999999999,
    "popularity": 971
  },
  {
    "name": "Great Lawn",
    "address": "Central Park",
    "lat": 40.7812116,
    "lng": -73.9666448,
    "popularity": 960
  },
  {
    "name": "Brooklyn Academy of Music",
    "address": "30 Lafayette Ave",
    "lat": 40.6866793,
    "lng": -73.9775208,
    "popularity": 957
  },
  {
    "name": "Union Square Greenmarket",
    "address": "E 17th St",
    "lat": 40.736722,
    "lng": -73.99022599999999,
    "popularity": 924
  },
  {
    "name": "White Columns",
    "address": "320 W 13th St",
    "lat": 40.7388407,
    "lng": -74.0042485,
    "popularity": 911
  },
  {
    "name": "Cooper Union Building",
    "address": "7 E 7th St",
    "lat": 40.7285196,
    "lng": -73.99021119999999,
    "popularity": 874
  },
  {
    "name": "Rubin Museum of Art",
    "address": "150 W 17th St",
    "lat": 40.7401773,
    "lng": -73.9978141,
    "popularity": 872
  },
  {
    "name": "Noguchi Museum",
    "address": "9-01 33rd Rd",
    "lat": 40.766813,
    "lng": -73.9380539,
    "popularity": 844
  },
  {
    "name": "National Museum of the American Indian",
    "address": "1 Bowling Green",
    "lat": 40.7040185,
    "lng": -74.01372289999999,
    "popularity": 776
  },
  {
    "name": "Grace Church",
    "address": "802 Broadway",
    "lat": 40.72467,
    "lng": -73.9901139,
    "popularity": 726
  },
  {
    "name": "Cloisters Museum & Gardens",
    "address": "Fort Tryon Park",
    "lat": 40.8648628,
    "lng": -73.9317274,
    "popularity": 725
  },
  {
    "name": "Fort Totten",
    "address": "Totten Ave & 15 Rd.",
    "lat": 40.7927954,
    "lng": -73.7769144,
    "popularity": 721
  },
  {
    "name": "Metropolitan Life Tower",
    "address": "1 Madison Ave",
    "lat": 40.7409066,
    "lng": -73.9869088,
    "popularity": 713
  },
  {
    "name": "New York Hall of Science",
    "address": "47-01 111th St",
    "lat": 40.747151,
    "lng": -73.851666,
    "popularity": 681
  },
  {
    "name": "Castle Clinton",
    "address": "Battery Park",
    "lat": 40.7034401,
    "lng": -74.0168023,
    "popularity": 678
  },
  {
    "name": "Museum of Sex",
    "address": "233 Fifth Ave",
    "lat": 40.74410640000001,
    "lng": -73.98741129999999,
    "popularity": 663
  },
  {
    "name": "Seagram Building",
    "address": "100 E 53rd St",
    "lat": 40.7584196,
    "lng": -73.9721969,
    "popularity": 659
  },
  {
    "name": "South Street Seaport Museum",
    "address": "12 Fulton St",
    "lat": 40.7065616,
    "lng": -74.0037097,
    "popularity": 649
  },
  {
    "name": "Brooklyn Public Library",
    "address": "10 Grand Army Plaza",
    "lat": 40.6644738,
    "lng": -73.90517480000001,
    "popularity": 632
  },
  {
    "name": "Arsenal",
    "address": "Central Park",
    "lat": 40.7513403,
    "lng": -73.9787503,
    "popularity": 617
  },
  {
    "name": "Lever House",
    "address": "390 Park Ave",
    "lat": 40.75959,
    "lng": -73.97250000000001,
    "popularity": 605
  },
  {
    "name": "Woodlawn Cemetery",
    "address": "Webster Ave",
    "lat": 40.8955979,
    "lng": -73.86425349999999,
    "popularity": 575
  },
  {
    "name": "International Center of Photography",
    "address": "250 Bowery",
    "lat": 40.755248,
    "lng": -73.98340139999999,
    "popularity": 573
  },
  {
    "name": "Deno’s Wonder Wheel",
    "address": "W 12th St",
    "lat": 40.5735518,
    "lng": -73.9793564,
    "popularity": 571
  },
  {
    "name": "Citigroup Center",
    "address": "139 E 53rd St",
    "lat": 40.7583469,
    "lng": -73.9702176,
    "popularity": 565
  },
  {
    "name": "Pier 45",
    "address": "W 10th St",
    "lat": 40.7331926,
    "lng": -74.0116944,
    "popularity": 552
  },
  {
    "name": "American Folk Art Museum",
    "address": "2 Lincoln Sq, Columbus Ave",
    "lat": 40.773207,
    "lng": -73.98138999999999,
    "popularity": 536
  },
  {
    "name": "Diamond District",
    "address": "W 47th St",
    "lat": 40.760411,
    "lng": -73.98745749999999,
    "popularity": 506
  },
  {
    "name": "Ditmas Park",
    "address": "Cortelyou Rd.",
    "lat": 40.6409217,
    "lng": -73.96243270000001,
    "popularity": 504
  },
  {
    "name": "Williamsburgh Savings Bank Tower",
    "address": "1 Hanson Pl",
    "lat": 40.6855338,
    "lng": -73.9777386,
    "popularity": 500
  },
  {
    "name": "432 Park Avenue",
    "address": "432 Park Ave",
    "lat": 40.7615762,
    "lng": -73.9717625,
    "popularity": 497
  },
  {
    "name": "Invisible Dog",
    "address": "51 Bergen St",
    "lat": 40.687245,
    "lng": -73.99119630000001,
    "popularity": 494
  },
  {
    "name": "Brooklyn Historical Society",
    "address": "128 Pierrepont St",
    "lat": 40.6947959,
    "lng": -73.9924082,
    "popularity": 490
  },
  {
    "name": "Museum at FIT",
    "address": "227 W 27th St",
    "lat": 40.7466,
    "lng": -73.994193,
    "popularity": 481
  },
  {
    "name": "Pier 15",
    "address": "South St",
    "lat": 40.7048023,
    "lng": -74.00352219999999,
    "popularity": 479
  },
  {
    "name": "Japan Society",
    "address": "333 E 47th St",
    "lat": 40.75251000000001,
    "lng": -73.968287,
    "popularity": 472
  },
  {
    "name": "Gagosian",
    "address": "555 W 24th St",
    "lat": 40.7494887,
    "lng": -74.0058521,
    "popularity": 465
  },
  {
    "name": "Irish Hunger Memorial",
    "address": "290 Vesey St",
    "lat": 40.715066,
    "lng": -74.016368,
    "popularity": 464
  },
  {
    "name": "Waterfront Museum",
    "address": "290 Conover St",
    "lat": 40.675219,
    "lng": -74.0183687,
    "popularity": 461
  },
  {
    "name": "Frick Collection",
    "address": "1 E 70th St",
    "lat": 40.7712286,
    "lng": -73.9672226,
    "popularity": 457
  },
  {
    "name": "Queens County Farm Museum",
    "address": "73-50 Little Neck Parkway",
    "lat": 40.7481378,
    "lng": -73.72104279999999,
    "popularity": 457
  },
  {
    "name": "Jewish Museum",
    "address": "1109 Fifth Ave",
    "lat": 40.7853899,
    "lng": -73.9571524,
    "popularity": 428
  },
  {
    "name": "Historic Richmond Town",
    "address": "441 Clarke Ave",
    "lat": 40.5709205,
    "lng": -74.1456038,
    "popularity": 428
  },
  {
    "name": "Gracie Mansion",
    "address": "East End Ave",
    "lat": 40.7770028,
    "lng": -73.9461139,
    "popularity": 402
  },
  {
    "name": "City Reliquary",
    "address": "370 Metropolitan Ave",
    "lat": 40.7139633,
    "lng": -73.95574599999999,
    "popularity": 402
  },
  {
    "name": "Chanin Building",
    "address": "122 E 42nd St",
    "lat": 40.7511977,
    "lng": -73.97659089999999,
    "popularity": 391
  },
  {
    "name": "41 Cooper Square",
    "address": "41 Cooper Sq",
    "lat": 40.7285196,
    "lng": -73.99021119999999,
    "popularity": 388
  },
  {
    "name": "Sheridan Square",
    "address": "",
    "lat": 40.7328463,
    "lng": -74.0021333,
    "popularity": 370
  },
  {
    "name": "National Arts Club",
    "address": "15 Gramercy Park S",
    "lat": 40.7376635,
    "lng": -73.98675340000001,
    "popularity": 369
  },
  {
    "name": "Franklin D Roosevelt Four Freedoms Park",
    "address": "Roosevelt Island",
    "lat": 40.7508076,
    "lng": -73.9604123,
    "popularity": 347
  },
  {
    "name": "St Patrick's Old Cathedral",
    "address": "263 Mulberry St",
    "lat": 40.7235564,
    "lng": -73.9951136,
    "popularity": 341
  },
  {
    "name": "African Burial Ground",
    "address": "290 Broadway",
    "lat": 40.7145049,
    "lng": -74.0043973,
    "popularity": 334
  },
  {
    "name": "6th & B Garden",
    "address": "",
    "lat": 40.7244971,
    "lng": -73.9816337,
    "popularity": 325
  },
  {
    "name": "Morgan Library & Museum",
    "address": "29 E 36th St",
    "lat": 40.7492258,
    "lng": -73.9813971,
    "popularity": 324
  },
  {
    "name": "Hamilton Grange",
    "address": "St Nicholas Park",
    "lat": 40.8213404,
    "lng": -73.9473251,
    "popularity": 316
  },
  {
    "name": "Children's Museum of the Arts",
    "address": "103 Charlton St",
    "lat": 40.7276164,
    "lng": -74.0081544,
    "popularity": 315
  },
  {
    "name": "Sara D Roosevelt Park",
    "address": "Houston St",
    "lat": 40.7219959,
    "lng": -73.991652,
    "popularity": 308
  },
  {
    "name": "Brooklyn Art Library",
    "address": "103 N 3rd St",
    "lat": 40.717305,
    "lng": -73.9510093,
    "popularity": 299
  },
  {
    "name": "Temple Emanu-El",
    "address": "1 E 65th St",
    "lat": 40.7680106,
    "lng": -73.96968620000001,
    "popularity": 296
  },
  {
    "name": "Snug Harbor Cultural Center & Botanical Garden",
    "address": "1000 Richmond Tce",
    "lat": 40.642631,
    "lng": -74.101917,
    "popularity": 293
  },
  {
    "name": "St Mark's in the Bowery",
    "address": "131 E 10th St",
    "lat": 40.7303309,
    "lng": -73.9871178,
    "popularity": 290
  },
  {
    "name": "Old Stone House",
    "address": "Washington Park/JJ Byrne Playground, 3rd St",
    "lat": 40.6729885,
    "lng": -73.98460229999999,
    "popularity": 289
  },
  {
    "name": "Kings County Distillery",
    "address": "Brooklyn Navy Yard",
    "lat": 40.6994854,
    "lng": -73.9786412,
    "popularity": 280
  },
  {
    "name": "Staten Island Museum",
    "address": "75 Stuyvesant Pl",
    "lat": 40.6443977,
    "lng": -74.07774169999999,
    "popularity": 275
  },
  {
    "name": "Leslie-Lohman Museum of Gay & Lesbian Art",
    "address": "26 Wooster St",
    "lat": 40.721669,
    "lng": -74.00309,
    "popularity": 274
  },
  {
    "name": "Literary Walk",
    "address": "Central Park, btwn 67th & 72nd Sts",
    "lat": 40.77235220000001,
    "lng": -73.9715901,
    "popularity": 259
  },
  {
    "name": "Italian American Museum",
    "address": "155 Mulberry St",
    "lat": 40.719217,
    "lng": -73.997498,
    "popularity": 254
  },
  {
    "name": "David Rubenstein Atrium",
    "address": "61 W 62nd St",
    "lat": 40.7712943,
    "lng": -73.9829263,
    "popularity": 254
  },
  {
    "name": "El Museo del Barrio",
    "address": "1230 Fifth Ave",
    "lat": 40.7931183,
    "lng": -73.9514063,
    "popularity": 245
  },
  {
    "name": "Museum of American Finance",
    "address": "48 Wall St",
    "lat": 40.7064123,
    "lng": -74.0093041,
    "popularity": 241
  },
  {
    "name": "Pace Gallery",
    "address": "510 W 25th St",
    "lat": 40.7493512,
    "lng": -74.0054451,
    "popularity": 237
  },
  {
    "name": "Southpoint Park",
    "address": "East Rd",
    "lat": 40.76050310000001,
    "lng": -73.9509934,
    "popularity": 237
  },
  {
    "name": "David Zwirner",
    "address": "537 W 20th St",
    "lat": 40.74581630000001,
    "lng": -74.0067696,
    "popularity": 234
  },
  {
    "name": "Theodore Roosevelt Birthplace",
    "address": "28 E 20th St",
    "lat": 40.7386331,
    "lng": -73.9890521,
    "popularity": 233
  },
  {
    "name": "Church of the Transfiguration",
    "address": "29 Mott St",
    "lat": 40.7452591,
    "lng": -73.98597869999999,
    "popularity": 230
  },
  {
    "name": "Lehmann Maupin",
    "address": "201 Chrystie St",
    "lat": 40.7474992,
    "lng": -74.0062747,
    "popularity": 228
  },
  {
    "name": "Abingdon Square",
    "address": "Hudson St",
    "lat": 40.737341,
    "lng": -74.0053154,
    "popularity": 227
  },
  {
    "name": "Children's Museum of Manhattan",
    "address": "212 W 83rd St",
    "lat": 40.785877,
    "lng": -73.977283,
    "popularity": 221
  },
  {
    "name": "Lower East Side Tenement Museum",
    "address": "103 Orchard St",
    "lat": 40.7187958,
    "lng": -73.99006969999999,
    "popularity": 220
  },
  {
    "name": "Cooper-Hewitt National Design Museum",
    "address": "2 E 91st St",
    "lat": 40.7843958,
    "lng": -73.9578732,
    "popularity": 217
  },
  {
    "name": "Lord & Taylor Building",
    "address": "cnr Broadway & E 20th St",
    "lat": 40.7514652,
    "lng": -73.9827316,
    "popularity": 214
  },
  {
    "name": "Federal Reserve Bank of New York",
    "address": "33 Liberty St",
    "lat": 40.7083663,
    "lng": -74.008653,
    "popularity": 210
  },
  {
    "name": "General Ulysses S Grant National Memorial",
    "address": "Riverside Dr",
    "lat": 40.8134045,
    "lng": -73.9630671,
    "popularity": 209
  },
  {
    "name": "New York Earth Room",
    "address": "141 Wooster St",
    "lat": 40.7260232,
    "lng": -73.9998512,
    "popularity": 205
  },
  {
    "name": "Cheim & Read",
    "address": "547 W 25th St",
    "lat": 40.7499636,
    "lng": -74.0051682,
    "popularity": 202
  },
  {
    "name": "Neue Galerie",
    "address": "1048 Fifth Ave",
    "lat": 40.781264,
    "lng": -73.9603267,
    "popularity": 201
  },
  {
    "name": "Hispanic Society of America Museum & Library",
    "address": "Broadway",
    "lat": 40.833501,
    "lng": -73.94684800000002,
    "popularity": 198
  },
  {
    "name": "Brill Building",
    "address": "1619 Broadway",
    "lat": 40.7611522,
    "lng": -73.9846563,
    "popularity": 198
  },
  {
    "name": "The Blockhouse",
    "address": "",
    "lat": 40.7986571,
    "lng": -73.9563026,
    "popularity": 197
  },
  {
    "name": "Mary Boone Gallery",
    "address": "541 W 24th St",
    "lat": 40.7493062,
    "lng": -74.0055665,
    "popularity": 193
  },
  {
    "name": "Le Carrousel",
    "address": "W 40th St",
    "lat": 40.7535965,
    "lng": -73.9832326,
    "popularity": 191
  },
  {
    "name": "Louis Armstrong House",
    "address": "34-56 107th St",
    "lat": 40.7545785,
    "lng": -73.8615195,
    "popularity": 187
  },
  {
    "name": "Montgomery Place",
    "address": "Montgomery Place",
    "lat": 40.671784,
    "lng": -73.974188,
    "popularity": 182
  },
  {
    "name": "Museum of Jewish Heritage",
    "address": "36 Battery Pl",
    "lat": 40.7059752,
    "lng": -74.0185789,
    "popularity": 182
  },
  {
    "name": "Harrison Street Houses",
    "address": "Harrison St",
    "lat": 40.7191115,
    "lng": -74.0108824,
    "popularity": 171
  },
  {
    "name": "Plymouth Church",
    "address": "57 Orange St",
    "lat": 40.699251,
    "lng": -73.9931105,
    "popularity": 171
  },
  {
    "name": "Strivers’ Row",
    "address": "W 138th & W 139th Sts",
    "lat": 40.8172653,
    "lng": -73.9426015,
    "popularity": 163
  },
  {
    "name": "Sylvan Terrace",
    "address": "Sylvan Tce",
    "lat": 40.8348465,
    "lng": -73.9396728,
    "popularity": 163
  },
  {
    "name": "Brooklyn Children’s Museum",
    "address": "145 Brooklyn Ave",
    "lat": 40.674426,
    "lng": -73.94403299999999,
    "popularity": 163
  },
  {
    "name": "Alice Austen House",
    "address": "2 Hylan Blvd",
    "lat": 40.6151351,
    "lng": -74.06301789999999,
    "popularity": 161
  },
  {
    "name": "Museum at Eldridge Street Synagogue",
    "address": "12 Eldridge St",
    "lat": 40.7147484,
    "lng": -73.99355609999999,
    "popularity": 160
  },
  {
    "name": "Sperone Westwater",
    "address": "257 Bowery",
    "lat": 40.72314799999999,
    "lng": -73.992583,
    "popularity": 159
  },
  {
    "name": "Wyckoff House",
    "address": "5816 Clarendon Rd",
    "lat": 40.6443368,
    "lng": -73.92077309999999,
    "popularity": 158
  },
  {
    "name": "Mahayana Temple",
    "address": "133 Canal St",
    "lat": 40.7161465,
    "lng": -73.995431,
    "popularity": 155
  },
  {
    "name": "Anastasia Photo",
    "address": "143 Ludlow St",
    "lat": 40.720628,
    "lng": -73.98834099999999,
    "popularity": 153
  },
  {
    "name": "Tibet House",
    "address": "22 W 15th St",
    "lat": 40.7370646,
    "lng": -73.9946066,
    "popularity": 152
  },
  {
    "name": "Arthur Avenue Retail Market",
    "address": "2344 Arthur Ave",
    "lat": 40.854087,
    "lng": -73.888195,
    "popularity": 151
  },
  {
    "name": "Tisch Children's Zoo",
    "address": "Central Park",
    "lat": 40.767778,
    "lng": -73.9718335,
    "popularity": 147
  },
  {
    "name": "Studio Museum in Harlem",
    "address": "144 W 125th St",
    "lat": 40.8082658,
    "lng": -73.94772689999999,
    "popularity": 147
  },
  {
    "name": "Weeksville Heritage Center",
    "address": "1698 Bergen St",
    "lat": 40.6739761,
    "lng": -73.9253119,
    "popularity": 145
  },
  {
    "name": "SculptureCenter",
    "address": "44-19 Purves St",
    "lat": 40.7469373,
    "lng": -73.940835,
    "popularity": 144
  },
  {
    "name": "Le Petit Versailles",
    "address": "346 E Houston St",
    "lat": 40.7210878,
    "lng": -73.9817862,
    "popularity": 141
  },
  {
    "name": "General Theological Seminary",
    "address": "440 W 21st St",
    "lat": 40.7458439,
    "lng": -74.00399260000002,
    "popularity": 137
  },
  {
    "name": "Matthew Marks Gallery",
    "address": "523 W 24th St",
    "lat": 40.7489801,
    "lng": -74.0047002,
    "popularity": 133
  },
  {
    "name": "Empire Stores & Tobacco Warehouse",
    "address": "Water St",
    "lat": 40.7035539,
    "lng": -73.9916217,
    "popularity": 130
  },
  {
    "name": "Fraunces Tavern Museum",
    "address": "54 Pearl St",
    "lat": 40.7033722,
    "lng": -74.0113732,
    "popularity": 130
  },
  {
    "name": "Merchant's House Museum",
    "address": "29 E 4th St",
    "lat": 40.72766499999999,
    "lng": -73.99234,
    "popularity": 130
  },
  {
    "name": "BLDG 92",
    "address": "Brooklyn Navy Yard",
    "lat": 40.6982127,
    "lng": -73.9734393,
    "popularity": 129
  },
  {
    "name": "Lefferts Historic House",
    "address": "Prospect Park",
    "lat": 40.6643449,
    "lng": -73.9637644,
    "popularity": 129
  },
  {
    "name": "Edgar Allan Poe Cottage",
    "address": "2640 Grand Concourse",
    "lat": 40.8655316,
    "lng": -73.8942093,
    "popularity": 128
  },
  {
    "name": "Fisher Landau Center for Art",
    "address": "38-27 30th St",
    "lat": 40.7534446,
    "lng": -73.9331025,
    "popularity": 127
  },
  {
    "name": "Morris-Jumel Mansion Museum",
    "address": "65 Jumel Tce",
    "lat": 40.8344548,
    "lng": -73.9385727,
    "popularity": 127
  },
  {
    "name": "Dyckman Farmhouse Museum",
    "address": "4881 Broadway",
    "lat": 40.8673996,
    "lng": -73.9228554,
    "popularity": 126
  },
  {
    "name": "Paula Cooper Gallery",
    "address": "534 W 21st St",
    "lat": 40.7470852,
    "lng": -74.0064299,
    "popularity": 124
  },
  {
    "name": "Nicholas Roerich Museum",
    "address": "319 W 107th St",
    "lat": 40.8029403,
    "lng": -73.9690069,
    "popularity": 124
  },
  {
    "name": "Salon 94 Bowery",
    "address": "243 Bowery",
    "lat": 40.722552,
    "lng": -73.992831,
    "popularity": 123
  },
  {
    "name": "Schomburg Center for Research in Black Culture",
    "address": "515 Malcolm X Blvd",
    "lat": 40.8145872,
    "lng": -73.94092599999999,
    "popularity": 122
  },
  {
    "name": "Abyssinian Baptist Church",
    "address": "132 Odell Clark Pl",
    "lat": 40.8166821,
    "lng": -73.9415561,
    "popularity": 121
  },
  {
    "name": "Crack Is Wack Playground",
    "address": "Harlem River Park, E 127th St & 2 Ave",
    "lat": 40.8043335,
    "lng": -73.9319557,
    "popularity": 118
  },
  {
    "name": "Barbara Gladstone Gallery",
    "address": "515 W 24th St",
    "lat": 40.7469015,
    "lng": -74.00668379999999,
    "popularity": 116
  },
  {
    "name": "Hamilton Heights Historic District",
    "address": "Convent Ave & Hamilton Tce",
    "lat": 40.8213404,
    "lng": -73.9473251,
    "popularity": 115
  },
  {
    "name": "Canaan Baptist Church",
    "address": "132 W 116th St",
    "lat": 40.802615,
    "lng": -73.9514634,
    "popularity": 114
  },
  {
    "name": "Asia Society & Museum",
    "address": "725 Park Ave",
    "lat": 40.76983999999999,
    "lng": -73.96430459999999,
    "popularity": 111
  },
  {
    "name": "Jamaica Bay Wildlife Refuge Visitor Center",
    "address": "Cross Bay Blvd",
    "lat": 40.6166866,
    "lng": -73.8249345,
    "popularity": 111
  },
  {
    "name": "Andrea Rosen Gallery",
    "address": "525 W 24th St",
    "lat": 40.7491112,
    "lng": -74.0049563,
    "popularity": 110
  },
  {
    "name": "BRIC House",
    "address": "647 Fulton St",
    "lat": 40.6886419,
    "lng": -73.97912980000001,
    "popularity": 109
  },
  {
    "name": "Mark Miller Gallery",
    "address": "92 Orchard St",
    "lat": 40.7182684,
    "lng": -73.9900234,
    "popularity": 109
  },
  {
    "name": "Salon 94 Freemans",
    "address": "1 Freeman Alley",
    "lat": 40.7219623,
    "lng": -73.9925756,
    "popularity": 108
  },
  {
    "name": "Paley Center for Media",
    "address": "25 W 52nd St",
    "lat": 40.760603,
    "lng": -73.977599,
    "popularity": 108
  },
  {
    "name": "Broken Kilometer",
    "address": "393 W Broadway",
    "lat": 40.724023,
    "lng": -74.00211390000001,
    "popularity": 108
  },
  {
    "name": "Brisas del Caribe",
    "address": "237 E 3rd St",
    "lat": 40.8321105,
    "lng": -73.8513771,
    "popularity": 107
  },
  {
    "name": "Convent Avenue Baptist Church",
    "address": "420 W 145th St",
    "lat": 40.8243124,
    "lng": -73.94604269999999,
    "popularity": 106
  },
  {
    "name": "All People’s Garden",
    "address": "293 E 3rd St",
    "lat": 40.7214475,
    "lng": -73.9795594,
    "popularity": 105
  },
  {
    "name": "Malcolm Shabazz Harlem Market",
    "address": "52 W 116th St",
    "lat": 40.8013615,
    "lng": -73.94888639999999,
    "popularity": 105
  },
  {
    "name": "Harbor Defense Museum",
    "address": "101st St & Fort Hamilton Pkwy",
    "lat": 40.609084,
    "lng": -74.032499,
    "popularity": 105
  },
  {
    "name": "Ravenite Social Club",
    "address": "247 Mulberry St",
    "lat": 40.7230819,
    "lng": -73.9960736,
    "popularity": 104
  },
  {
    "name": "Museum of Contemporary African Diasporan Arts",
    "address": "80 Hanson Pl",
    "lat": 40.6851993,
    "lng": -73.974308,
    "popularity": 104
  },
  {
    "name": "Riis Beach and Ft. Tilden",
    "address": "Gateway National Recreation Area, Rockaway Beach Blvd",
    "lat": 40.5615564,
    "lng": -73.8960407,
    "popularity": 104
  },
  {
    "name": "Kehila Kedosha Janina Synagogue & Museum",
    "address": "280 Broome St",
    "lat": 40.71858,
    "lng": -73.99118,
    "popularity": 103
  },
  {
    "name": "555 Edgecombe Ave",
    "address": "555 Edgecombe Ave",
    "lat": 40.8337856,
    "lng": -73.9388606,
    "popularity": 103
  },
  {
    "name": "Greater Astoria Historical Society",
    "address": "35-20 Broadway",
    "lat": 40.760262,
    "lng": -73.9932872,
    "popularity": 102
  },
  {
    "name": "Eastern States Buddhist Temple",
    "address": "64 Mott St",
    "lat": 40.7160187,
    "lng": -73.9980046,
    "popularity": 101
  },
  {
    "name": "The Kaufman Arts District",
    "address": "34-12 36th St.",
    "lat": 40.7562482,
    "lng": -73.9245419,
    "popularity": 101
  },
  {
    "name": "Donald Judd Home Studio",
    "address": "101 Spring St",
    "lat": 40.7235042,
    "lng": -73.9993863,
    "popularity": 101
  },
  {
    "name": "Lesley Heller",
    "address": "54 Orchard St",
    "lat": 40.7165495,
    "lng": -73.9907621,
    "popularity": 100
  },
  {
    "name": "9th St Garden & La Plaza Cultural",
    "address": "E 9th St",
    "lat": 40.7253288,
    "lng": -73.9786264,
    "popularity": 100
  },
  {
    "name": "Fillmore East",
    "address": "105 Second Ave",
    "lat": 42.4661754,
    "lng": -78.115008,
    "popularity": 100
  },
  {
    "name": "Greater Ridgewood Historic Society",
    "address": "1820 Flushing Ave",
    "lat": 40.7109309,
    "lng": -73.92000709999999,
    "popularity": 100
  },
  {
    "name": "Mesler Feuer",
    "address": "30 Orchard St",
    "lat": 40.71713219999999,
    "lng": -73.9910262,
    "popularity": 100
  },
  {
    "name": "10–18 Jumel Terrace",
    "address": "10-18 Jumel Tce",
    "lat": 40.834948,
    "lng": -73.938988,
    "popularity": 100
  }
]
