[
  {
    "name": "Sydney Opera House",
    "address": "Bennelong Point",
    "lat": -33.8567844,
    "lng": 151.2152967,
    "popularity": 34644
  },
  {
    "name": "Sydney Harbour Bridge",
    "address": "",
    "lat": -33.8523063,
    "lng": 151.2107871,
    "popularity": 26793
  },
  {
    "name": "Sydney Park",
    "address": "Sydney Park Rd",
    "lat": -33.907697,
    "lng": 151.185544,
    "popularity": 20482
  },
  {
    "name": "Bondi Beach",
    "address": "Campbell Pde",
    "lat": -33.8914755,
    "lng": 151.2766845,
    "popularity": 15019
  },
  {
    "name": "Taronga Zoo",
    "address": "Bradleys Head Rd",
    "lat": -33.8430217,
    "lng": 151.241913,
    "popularity": 12869
  },
  {
    "name": "University of Sydney",
    "address": "Parramatta Rd",
    "lat": -33.888584,
    "lng": 151.1873473,
    "popularity": 11585
  },
  {
    "name": "Manly Beach",
    "address": "",
    "lat": -33.7931501,
    "lng": 151.2876488,
    "popularity": 6512
  },
  {
    "name": "Australia Square",
    "address": "264 George St",
    "lat": -33.86512940000001,
    "lng": 151.2078882,
    "popularity": 5661
  },
  {
    "name": "Cockatoo Island",
    "address": "",
    "lat": -33.8470558,
    "lng": 151.1716362,
    "popularity": 5594
  },
  {
    "name": "Hyde Park",
    "address": "Elizabeth St",
    "lat": -33.8731383,
    "lng": 151.2112757,
    "popularity": 5089
  },
  {
    "name": "Museum of Sydney",
    "address": "cnr Phillip & Bridge Sts",
    "lat": -33.863668,
    "lng": 151.21149,
    "popularity": 4660
  },
  {
    "name": "Tamarama Beach",
    "address": "Pacific Ave",
    "lat": -33.9004126,
    "lng": 151.2704218,
    "popularity": 4394
  },
  {
    "name": "Royal Botanic Garden",
    "address": "Mrs Macquaries Rd",
    "lat": -33.8641859,
    "lng": 151.2165708,
    "popularity": 4162
  },
  {
    "name": "Australian Museum",
    "address": "6 College St",
    "lat": -33.8743446,
    "lng": 151.2131667,
    "popularity": 4125
  },
  {
    "name": "Cronulla",
    "address": "",
    "lat": -34.05744,
    "lng": 151.15219,
    "popularity": 3651
  },
  {
    "name": "Luna Park",
    "address": "1 Olympic Dr",
    "lat": -33.8476987,
    "lng": 151.2098382,
    "popularity": 3636
  },
  {
    "name": "South Head",
    "address": "Cliff St",
    "lat": -33.8330861,
    "lng": 151.2807117,
    "popularity": 3106
  },
  {
    "name": "Watsons Bay",
    "address": "",
    "lat": -33.8398183,
    "lng": 151.2816573,
    "popularity": 3049
  },
  {
    "name": "Martin Place",
    "address": "",
    "lat": -33.8677101,
    "lng": 151.2098607,
    "popularity": 3017
  },
  {
    "name": "Sydney Town Hall",
    "address": "483 George St",
    "lat": -33.8731575,
    "lng": 151.2061157,
    "popularity": 2985
  },
  {
    "name": "St Mary’s Cathedral",
    "address": "St Marys Rd",
    "lat": -33.8711905,
    "lng": 151.2133254,
    "popularity": 2868
  },
  {
    "name": "Coogee Beach",
    "address": "Arden St",
    "lat": -33.9203189,
    "lng": 151.2581384,
    "popularity": 2754
  },
  {
    "name": "Queen Victoria Building",
    "address": "455 George St",
    "lat": -33.871722,
    "lng": 151.2067078,
    "popularity": 2748
  },
  {
    "name": "Powerhouse Museum",
    "address": "500 Harris St",
    "lat": -33.878518,
    "lng": 151.1995418,
    "popularity": 2667
  },
  {
    "name": "Central Station",
    "address": "Eddy Ave",
    "lat": -33.8826209,
    "lng": 151.2065819,
    "popularity": 2599
  },
  {
    "name": "Balmain",
    "address": "",
    "lat": -33.85895,
    "lng": 151.17906,
    "popularity": 2539
  },
  {
    "name": "The Star",
    "address": "80 Pyrmont St",
    "lat": -33.8679724,
    "lng": 151.1952317,
    "popularity": 2408
  },
  {
    "name": "Carriageworks",
    "address": "245 Wilson St",
    "lat": -33.8941669,
    "lng": 151.1915706,
    "popularity": 2384
  },
  {
    "name": "Featherdale Wildlife Park",
    "address": "217-229 Kildare Rd",
    "lat": -33.7658817,
    "lng": 150.8842787,
    "popularity": 2197
  },
  {
    "name": "Bronte Beach",
    "address": "Bronte Rd",
    "lat": -33.9034863,
    "lng": 151.2682338,
    "popularity": 2185
  },
  {
    "name": "Australian National Maritime Museum",
    "address": "2 Murray St",
    "lat": -33.8693567,
    "lng": 151.1986328,
    "popularity": 2110
  },
  {
    "name": "Centennial Park",
    "address": "Oxford St",
    "lat": -33.90108,
    "lng": 151.23036,
    "popularity": 2085
  },
  {
    "name": "Speakers’ Corner",
    "address": "Art Gallery Rd",
    "lat": 51.5118942,
    "lng": -0.1593661,
    "popularity": 1943
  },
  {
    "name": "Chinatown",
    "address": "",
    "lat": -33.8790999,
    "lng": 151.2045271,
    "popularity": 1796
  },
  {
    "name": "The Domain",
    "address": "Art Gallery Rd",
    "lat": -33.8715163,
    "lng": 151.214894,
    "popularity": 1792
  },
  {
    "name": "Palm Beach",
    "address": "Ocean Rd",
    "lat": -33.601111,
    "lng": 151.321667,
    "popularity": 1760
  },
  {
    "name": "Museum of Contemporary Art",
    "address": "140 George St",
    "lat": -33.8599358,
    "lng": 151.2090295,
    "popularity": 1725
  },
  {
    "name": "Dee Why",
    "address": "The Strand",
    "lat": -33.7544,
    "lng": 151.2854,
    "popularity": 1710
  },
  {
    "name": "Narrabeen",
    "address": "Ocean St",
    "lat": -33.7231,
    "lng": 151.2952,
    "popularity": 1467
  },
  {
    "name": "Anzac Bridge",
    "address": "Western Distributor",
    "lat": -33.8690126,
    "lng": 151.1852901,
    "popularity": 1459
  },
  {
    "name": "Moore Park",
    "address": "Anzac Pde",
    "lat": -33.89655,
    "lng": 151.21998,
    "popularity": 1443
  },
  {
    "name": "Sydney Fish Market",
    "address": "Bank St",
    "lat": -33.873102,
    "lng": 151.1925959,
    "popularity": 1361
  },
  {
    "name": "Customs House",
    "address": "31 Alfred St",
    "lat": -33.8621961,
    "lng": 151.2108531,
    "popularity": 1336
  },
  {
    "name": "Chinese Garden of Friendship",
    "address": "Harbour St",
    "lat": -33.8765192,
    "lng": 151.2027618,
    "popularity": 1275
  },
  {
    "name": "North Head",
    "address": "North Head Scenic Dr",
    "lat": -33.817523,
    "lng": 151.29598,
    "popularity": 1209
  },
  {
    "name": "Sydney Observatory",
    "address": "1003 Upper Fort St",
    "lat": -33.8596098,
    "lng": 151.2047364,
    "popularity": 1180
  },
  {
    "name": "Anzac Memorial",
    "address": "Hyde Park",
    "lat": -33.8757178,
    "lng": 151.2109272,
    "popularity": 1162
  },
  {
    "name": "Art Gallery of NSW",
    "address": "Art Gallery Rd",
    "lat": -33.8688037,
    "lng": 151.2174138,
    "popularity": 1100
  },
  {
    "name": "Macquarie Street",
    "address": "",
    "lat": -33.8640796,
    "lng": 151.2127762,
    "popularity": 1097
  },
  {
    "name": "Bare Island",
    "address": "",
    "lat": -33.9921164,
    "lng": 151.2311911,
    "popularity": 1086
  },
  {
    "name": "Maroubra Beach",
    "address": "Marine Pde",
    "lat": -33.9495,
    "lng": 151.2437,
    "popularity": 1083
  },
  {
    "name": "Victoria Park",
    "address": "cnr Parramatta & City Rds",
    "lat": -33.8863859,
    "lng": 151.1928046,
    "popularity": 1050
  },
  {
    "name": "Walsh Bay",
    "address": "Hickson Rd",
    "lat": -33.849291,
    "lng": 151.2024125,
    "popularity": 1020
  },
  {
    "name": "Government House",
    "address": "Macquarie St",
    "lat": -33.8596434,
    "lng": 151.2148495,
    "popularity": 999
  },
  {
    "name": "Curl Curl",
    "address": "Carrington Pde",
    "lat": -33.77213,
    "lng": 151.28992,
    "popularity": 988
  },
  {
    "name": "Shelly Beach",
    "address": "",
    "lat": -33.8005496,
    "lng": 151.2979212,
    "popularity": 972
  },
  {
    "name": "Fort Denison",
    "address": "",
    "lat": -33.854794,
    "lng": 151.2256354,
    "popularity": 947
  },
  {
    "name": "ANZ Stadium",
    "address": "Olympic Blvd",
    "lat": -33.8471156,
    "lng": 151.0634135,
    "popularity": 946
  },
  {
    "name": "McMahons Point",
    "address": "",
    "lat": -33.84524,
    "lng": 151.20433,
    "popularity": 887
  },
  {
    "name": "Sydney Hospital",
    "address": "8 Macquarie St",
    "lat": -33.86816220000001,
    "lng": 151.2122224,
    "popularity": 879
  },
  {
    "name": "Garden Island",
    "address": "",
    "lat": -33.8588921,
    "lng": 151.2294331,
    "popularity": 878
  },
  {
    "name": "Collaroy",
    "address": "Pittwater Rd",
    "lat": -33.73,
    "lng": 151.3,
    "popularity": 873
  },
  {
    "name": "State Library of NSW",
    "address": "Macquarie St",
    "lat": -33.8668675,
    "lng": 151.2128511,
    "popularity": 856
  },
  {
    "name": "Sydney Harbour National Park",
    "address": "",
    "lat": -33.8147927,
    "lng": 151.2957716,
    "popularity": 749
  },
  {
    "name": "Overseas Passenger Terminal",
    "address": "Circular Quay West",
    "lat": -33.8581392,
    "lng": 151.2098175,
    "popularity": 728
  },
  {
    "name": "Cremorne Point",
    "address": "",
    "lat": -33.84076,
    "lng": 151.22789,
    "popularity": 702
  },
  {
    "name": "Sydney Sea Life Aquarium",
    "address": "Aquarium Pier",
    "lat": -33.8700138,
    "lng": 151.2022107,
    "popularity": 694
  },
  {
    "name": "Camp Cove",
    "address": "Cliff St",
    "lat": -33.8393071,
    "lng": 151.2783774,
    "popularity": 675
  },
  {
    "name": "Freshwater",
    "address": "Moore Rd",
    "lat": -33.7749,
    "lng": 151.28783,
    "popularity": 675
  },
  {
    "name": "Balmoral Beach",
    "address": "The Esplanade",
    "lat": -33.8276032,
    "lng": 151.2520562,
    "popularity": 651
  },
  {
    "name": "King Street Wharf",
    "address": "Lime St",
    "lat": -33.8673436,
    "lng": 151.2017596,
    "popularity": 613
  },
  {
    "name": "Madame Tussauds",
    "address": "Aquarium Pier",
    "lat": -33.869791,
    "lng": 151.201508,
    "popularity": 612
  },
  {
    "name": "Entertainment Quarter",
    "address": "122 Lang Rd",
    "lat": -33.8949171,
    "lng": 151.2271837,
    "popularity": 595
  },
  {
    "name": "Darling Walk",
    "address": "Harbour St",
    "lat": -33.8748832,
    "lng": 151.2015349,
    "popularity": 589
  },
  {
    "name": "Queen Street",
    "address": "Queen St",
    "lat": -33.8881717,
    "lng": 151.2385463,
    "popularity": 574
  },
  {
    "name": "Barangaroo South",
    "address": "",
    "lat": -33.8637941,
    "lng": 151.2022304,
    "popularity": 570
  },
  {
    "name": "Sydney Tower Eye",
    "address": "level 5, Westfield Sydney, 188 Pitt St",
    "lat": -33.870451,
    "lng": 151.20876,
    "popularity": 568
  },
  {
    "name": "Mrs Macquaries Point",
    "address": "Mrs Macquaries Rd",
    "lat": -33.8593976,
    "lng": 151.2222374,
    "popularity": 568
  },
  {
    "name": "Avalon",
    "address": "Barrenjoey Rd",
    "lat": -33.6302836,
    "lng": 151.3297698,
    "popularity": 566
  },
  {
    "name": "Clovelly Beach",
    "address": "Clovelly Rd",
    "lat": -33.9133956,
    "lng": 151.2662607,
    "popularity": 564
  },
  {
    "name": "Parliament House",
    "address": "6 Macquarie St",
    "lat": -33.8674145,
    "lng": 151.2127386,
    "popularity": 547
  },
  {
    "name": "Harbourside",
    "address": "Darling Dr",
    "lat": -33.87488,
    "lng": 151.2009,
    "popularity": 543
  },
  {
    "name": "Lane Cove National Park",
    "address": "Lady Game Dr",
    "lat": -33.7855677,
    "lng": 151.1440659,
    "popularity": 541
  },
  {
    "name": "Kirribilli House",
    "address": "Kirribilli Ave",
    "lat": -33.8513227,
    "lng": 151.2191436,
    "popularity": 528
  },
  {
    "name": "State Theatre",
    "address": "49 Market St",
    "lat": -33.8708779,
    "lng": 151.2075534,
    "popularity": 511
  },
  {
    "name": "Whale Beach",
    "address": "Whale Beach Rd",
    "lat": -33.6131448,
    "lng": 151.3304989,
    "popularity": 508
  },
  {
    "name": "St James’ Church",
    "address": "173 King St",
    "lat": -33.8694515,
    "lng": 151.2111979,
    "popularity": 499
  },
  {
    "name": "Elizabeth Bay House",
    "address": "7 Onslow Ave",
    "lat": -33.8700611,
    "lng": 151.2264095,
    "popularity": 475
  },
  {
    "name": "Double Bay",
    "address": "",
    "lat": -33.8775,
    "lng": 151.2412,
    "popularity": 471
  },
  {
    "name": "Waverley Cemetery",
    "address": "St Thomas St",
    "lat": -33.9087476,
    "lng": 151.266042,
    "popularity": 441
  },
  {
    "name": "Woolloomooloo Wharf",
    "address": "Cowper Wharf Roadway",
    "lat": -33.8682998,
    "lng": 151.220423,
    "popularity": 414
  },
  {
    "name": "Taylor Square",
    "address": "cnr Oxford & Bourke Sts",
    "lat": -33.8818012,
    "lng": 151.2177261,
    "popularity": 407
  },
  {
    "name": "Manly Cove",
    "address": "",
    "lat": -33.7992429,
    "lng": 151.2825684,
    "popularity": 406
  },
  {
    "name": "Central Park",
    "address": "Broadway",
    "lat": -33.8846095,
    "lng": 151.2005557,
    "popularity": 396
  },
  {
    "name": "Tumbalong Park",
    "address": "",
    "lat": -33.8756305,
    "lng": 151.2018474,
    "popularity": 394
  },
  {
    "name": "Ku-ring-gai Chase National Park",
    "address": "Bobbin Head Rd",
    "lat": -33.621874,
    "lng": 151.245131,
    "popularity": 392
  },
  {
    "name": "Rose Seidler House",
    "address": "71 Clissold Rd",
    "lat": -33.709731,
    "lng": 151.141866,
    "popularity": 381
  },
  {
    "name": "Kirribilli Point",
    "address": "",
    "lat": -33.8526409,
    "lng": 151.2187916,
    "popularity": 378
  },
  {
    "name": "The Corso",
    "address": "",
    "lat": -33.798292,
    "lng": 151.285965,
    "popularity": 372
  },
  {
    "name": "Cockle Bay Wharf",
    "address": "",
    "lat": -33.8719035,
    "lng": 151.201955,
    "popularity": 371
  },
  {
    "name": "Vaucluse House",
    "address": "Wentworth Rd",
    "lat": -33.855512,
    "lng": 151.273641,
    "popularity": 367
  },
  {
    "name": "Barrenjoey Lighthouse",
    "address": "",
    "lat": -33.5801875,
    "lng": 151.3298619,
    "popularity": 359
  },
  {
    "name": "5 Martin Place",
    "address": "5 Martin Place",
    "lat": -33.8679991,
    "lng": 151.2088367,
    "popularity": 347
  },
  {
    "name": "Pylon Lookout",
    "address": "Sydney Harbour Bridge",
    "lat": -33.8545097,
    "lng": 151.2095305,
    "popularity": 345
  },
  {
    "name": "Shark Island",
    "address": "",
    "lat": -33.85856,
    "lng": 151.2577886,
    "popularity": 344
  },
  {
    "name": "Haymarket Library",
    "address": "744 George St",
    "lat": -33.879909,
    "lng": 151.205511,
    "popularity": 336
  },
  {
    "name": "Macquarie Lighthouse",
    "address": "Old South Head Rd",
    "lat": -33.8539454,
    "lng": 151.2851677,
    "popularity": 331
  },
  {
    "name": "Sydney Conservatorium of Music",
    "address": "1 Conservatorium Rd",
    "lat": -33.8634365,
    "lng": 151.2143423,
    "popularity": 329
  },
  {
    "name": "Goat Island",
    "address": "",
    "lat": -33.8524919,
    "lng": 151.1967667,
    "popularity": 329
  },
  {
    "name": "Macquarie Place",
    "address": "cnr Loftus & Bridge Sts",
    "lat": -33.8627602,
    "lng": 151.2101493,
    "popularity": 322
  },
  {
    "name": "GPO Sydney",
    "address": "1 Martin Place",
    "lat": -33.8678863,
    "lng": 151.2077362,
    "popularity": 319
  },
  {
    "name": "Hyde Park Barracks Museum",
    "address": "Queens Sq, Macquarie St",
    "lat": -33.8696042,
    "lng": 151.2128274,
    "popularity": 313
  },
  {
    "name": "White Rabbit",
    "address": "30 Balfour St",
    "lat": -33.886534,
    "lng": 151.2002512,
    "popularity": 308
  },
  {
    "name": "Wild Life Sydney Zoo",
    "address": "Aquarium Pier",
    "lat": -33.8692819,
    "lng": 151.2016973,
    "popularity": 292
  },
  {
    "name": "The Mint",
    "address": "10 Macquarie St",
    "lat": -33.8689869,
    "lng": 151.2127485,
    "popularity": 289
  },
  {
    "name": "Koala Park Sanctuary",
    "address": "84 Castle Hill Rd",
    "lat": -33.742098,
    "lng": 151.0451289,
    "popularity": 278
  },
  {
    "name": "Bilgola",
    "address": "Bilgola Ave",
    "lat": -33.6444858,
    "lng": 151.3275826,
    "popularity": 274
  },
  {
    "name": "Camperdown Cemetery",
    "address": "189 Church St",
    "lat": -33.8947775,
    "lng": 151.1794684,
    "popularity": 270
  },
  {
    "name": "Bondi Pavilion",
    "address": "Queen Elizabeth Dr",
    "lat": -33.8898552,
    "lng": 151.2769095,
    "popularity": 265
  },
  {
    "name": "Argyle Cut",
    "address": "Argyle St",
    "lat": -33.8588969,
    "lng": 151.2076946,
    "popularity": 249
  },
  {
    "name": "Nielsen Park",
    "address": "Vaucluse Rd",
    "lat": -33.851207,
    "lng": 151.266793,
    "popularity": 247
  },
  {
    "name": "Kamay Botany Bay National Park",
    "address": "",
    "lat": -34.0094368,
    "lng": 151.2275353,
    "popularity": 244
  },
  {
    "name": "Paddington Reservoir Gardens",
    "address": "cnr Oxford St & Oatley Rd",
    "lat": -33.8852889,
    "lng": 151.2267403,
    "popularity": 240
  },
  {
    "name": "Quarantine Station",
    "address": "1 North Head Scenic Dr",
    "lat": -33.8124435,
    "lng": 151.293947,
    "popularity": 239
  },
  {
    "name": "St Andrew’s Cathedral",
    "address": "cnr George & Bathurst Sts",
    "lat": -33.873902,
    "lng": 151.206346,
    "popularity": 236
  },
  {
    "name": "Reef Beach",
    "address": "Beatty St",
    "lat": -33.807665,
    "lng": 151.2739588,
    "popularity": 236
  },
  {
    "name": "Lady Bay",
    "address": "Cliff St",
    "lat": -33.8355328,
    "lng": 151.2794251,
    "popularity": 230
  },
  {
    "name": "Coca-Cola Sign",
    "address": "Darlinghurst Rd",
    "lat": -33.8752661,
    "lng": 151.2222459,
    "popularity": 218
  },
  {
    "name": "Admiralty House",
    "address": "Kirribilli Ave",
    "lat": -33.851849,
    "lng": 151.218684,
    "popularity": 215
  },
  {
    "name": "Dr Chau Chak Wing Building",
    "address": "Ultimo Rd",
    "lat": -33.8808809,
    "lng": 151.2013021,
    "popularity": 208
  },
  {
    "name": "Barangaroo Reserve",
    "address": "Hickson Rd",
    "lat": -33.857208,
    "lng": 151.201206,
    "popularity": 208
  },
  {
    "name": "Cadman’s Cottage",
    "address": "110 George St",
    "lat": -33.858888,
    "lng": 151.2091979,
    "popularity": 205
  },
  {
    "name": "National Art School",
    "address": "Forbes St",
    "lat": -33.8798198,
    "lng": 151.218524,
    "popularity": 199
  },
  {
    "name": "Customs House Library",
    "address": "31 Alfred St",
    "lat": -33.8622091,
    "lng": 151.2108596,
    "popularity": 197
  },
  {
    "name": "Sydney Tropical Centre",
    "address": "Shakespeare Pl",
    "lat": -33.8644866,
    "lng": 151.2175297,
    "popularity": 196
  },
  {
    "name": "Fairy Bower Beach",
    "address": "Bower Lane",
    "lat": -33.8007906,
    "lng": 151.2936784,
    "popularity": 188
  },
  {
    "name": "Lindesay",
    "address": "1 Carthona Ave",
    "lat": -33.8675485,
    "lng": 151.2398509,
    "popularity": 187
  },
  {
    "name": "Welcome Wall",
    "address": "2 Murray St",
    "lat": -33.8693567,
    "lng": 151.1986328,
    "popularity": 186
  },
  {
    "name": "Garrison Church",
    "address": "62 Lower Fort St",
    "lat": -33.8584673,
    "lng": 151.2056453,
    "popularity": 184
  },
  {
    "name": "Museum of Australian Currency Notes",
    "address": "65 Martin Pl",
    "lat": -33.8681046,
    "lng": 151.2118926,
    "popularity": 183
  },
  {
    "name": "Archibald Memorial Fountain",
    "address": "",
    "lat": -33.8709693,
    "lng": 151.2117954,
    "popularity": 183
  },
  {
    "name": "Brickpit Ring Walk",
    "address": "Australia Ave",
    "lat": -33.8407004,
    "lng": 151.071607,
    "popularity": 181
  },
  {
    "name": "Justice & Police Museum",
    "address": "cnr Albert & Phillip Sts",
    "lat": -33.8621697,
    "lng": 151.2122838,
    "popularity": 177
  },
  {
    "name": "Balls Head Reserve",
    "address": "Balls Head Rd",
    "lat": -33.845058,
    "lng": 151.1944512,
    "popularity": 176
  },
  {
    "name": "Foundation Park",
    "address": "Gloucester Walk",
    "lat": -33.8582841,
    "lng": 151.2079903,
    "popularity": 175
  },
  {
    "name": "Australian Centre for Photography",
    "address": "118 Oxford St",
    "lat": -33.878768,
    "lng": 151.21502,
    "popularity": 166
  },
  {
    "name": "Clontarf Beach",
    "address": "Sandy Bay Rd",
    "lat": -33.803705,
    "lng": 151.2523754,
    "popularity": 161
  },
  {
    "name": "Victoria Barracks",
    "address": "Oxford St",
    "lat": -33.8859428,
    "lng": 151.2232018,
    "popularity": 159
  },
  {
    "name": "Mortuary Station",
    "address": "",
    "lat": -33.8867415,
    "lng": 151.2024317,
    "popularity": 154
  },
  {
    "name": "Congwong Beach",
    "address": "end of Anzac Pde",
    "lat": -33.9889418,
    "lng": 151.2347829,
    "popularity": 154
  },
  {
    "name": "Argyle Place",
    "address": "Argyle St",
    "lat": -33.8582692,
    "lng": 151.2039793,
    "popularity": 153
  },
  {
    "name": "Rushcutters Bay Park",
    "address": "New South Head Rd",
    "lat": -33.8750806,
    "lng": 151.2303418,
    "popularity": 153
  },
  {
    "name": "Forty Baskets Beach",
    "address": "Beatty St",
    "lat": -33.8033631,
    "lng": 151.2700869,
    "popularity": 146
  },
  {
    "name": "Parsley Bay",
    "address": "",
    "lat": -33.852237,
    "lng": 151.278087,
    "popularity": 146
  },
  {
    "name": "Elizabeth Farm",
    "address": "70 Alice St",
    "lat": -33.821158,
    "lng": 151.017883,
    "popularity": 145
  },
  {
    "name": "Sze Yup Temple",
    "address": "2 Edward St",
    "lat": -33.873956,
    "lng": 151.1808226,
    "popularity": 144
  },
  {
    "name": "Elkington Park",
    "address": "cnr Glassop & White Sts",
    "lat": -33.8540483,
    "lng": 151.1727287,
    "popularity": 144
  },
  {
    "name": "Object Gallery",
    "address": "415 Bourke St",
    "lat": -33.874622,
    "lng": 151.216968,
    "popularity": 141
  },
  {
    "name": "Chinamans Beach",
    "address": "Cyprian St",
    "lat": -33.814576,
    "lng": 151.2485309,
    "popularity": 137
  },
  {
    "name": "Green Park",
    "address": "cnr Victoria & Burton Sts",
    "lat": -33.878405,
    "lng": 151.2215216,
    "popularity": 134
  },
  {
    "name": "Old Government House",
    "address": "Parramatta Park",
    "lat": -33.8120503,
    "lng": 150.9971031,
    "popularity": 134
  },
  {
    "name": "Fitzroy Gardens",
    "address": "cnr Macleay St & Darlinghurst Rd",
    "lat": -33.872657,
    "lng": 151.225582,
    "popularity": 132
  },
  {
    "name": "Susannah Place Museum",
    "address": "58-64 Gloucester St",
    "lat": -33.8601381,
    "lng": 151.2074098,
    "popularity": 131
  },
  {
    "name": "Transport Shop",
    "address": "Carrington St",
    "lat": -33.8658059,
    "lng": 151.2062315,
    "popularity": 130
  },
  {
    "name": "Milk Beach",
    "address": "52 Vaucluse Rd",
    "lat": -33.8565366,
    "lng": 151.2673083,
    "popularity": 130
  },
  {
    "name": "Italian Forum",
    "address": "23 Norton St",
    "lat": -33.887798,
    "lng": 151.158256,
    "popularity": 130
  },
  {
    "name": "Brett Whiteley Studio",
    "address": "2 Raper St",
    "lat": -33.8887086,
    "lng": 151.214539,
    "popularity": 129
  },
  {
    "name": "Obelisk Beach",
    "address": "Chowder Bay Rd",
    "lat": -33.8297786,
    "lng": 151.2609087,
    "popularity": 128
  },
  {
    "name": "Suez Canal",
    "address": "",
    "lat": -33.8595638,
    "lng": 151.2083335,
    "popularity": 127
  },
  {
    "name": "Federation Pavilion",
    "address": "Grand Dr",
    "lat": -33.8946647,
    "lng": 151.2389175,
    "popularity": 127
  },
  {
    "name": "Little Congwong Beach",
    "address": "",
    "lat": -33.9915566,
    "lng": 151.2383626,
    "popularity": 127
  },
  {
    "name": "Ken Done Gallery",
    "address": "1 Hickson Rd",
    "lat": -33.857907,
    "lng": 151.209415,
    "popularity": 127
  },
  {
    "name": "The Big Dig",
    "address": "110 Cumberland St",
    "lat": -33.8599745,
    "lng": 151.2069614,
    "popularity": 124
  },
  {
    "name": "Nicholson Museum",
    "address": "University Pl",
    "lat": -33.8864684,
    "lng": 151.1887756,
    "popularity": 122
  },
  {
    "name": "La Perouse Museum",
    "address": "Anzac Pde",
    "lat": -33.9885078,
    "lng": 151.231601,
    "popularity": 121
  },
  {
    "name": "Governors Phillip & Macquarie Towers",
    "address": "cnr Phillip, Young & Bent Sts",
    "lat": -33.8643353,
    "lng": 151.211225,
    "popularity": 119
  },
  {
    "name": "Strickland House",
    "address": "52 Vaucluse Rd",
    "lat": -33.8557167,
    "lng": 151.267969,
    "popularity": 118
  },
  {
    "name": "Store Beach",
    "address": "",
    "lat": -33.8122517,
    "lng": 151.2895384,
    "popularity": 117
  },
  {
    "name": "Cremorne Reserve",
    "address": "",
    "lat": -33.847988,
    "lng": 151.2320103,
    "popularity": 117
  },
  {
    "name": "Dolphin Point",
    "address": "Baden St",
    "lat": -33.9179717,
    "lng": 151.2512875,
    "popularity": 115
  },
  {
    "name": "St John’s Church",
    "address": "120 Darlinghurst Rd",
    "lat": -33.8772774,
    "lng": 151.2215228,
    "popularity": 115
  },
  {
    "name": "Currawong Beach",
    "address": "Great Mackerel Beach Reserve",
    "lat": -33.5952002,
    "lng": 151.2979869,
    "popularity": 115
  },
  {
    "name": "Manly Sea Life Sanctuary",
    "address": "West Esplanade",
    "lat": -33.7990623,
    "lng": 151.2813631,
    "popularity": 115
  },
  {
    "name": "Sherman Contemporary Art Foundation",
    "address": "16 Goodhope St",
    "lat": -33.8818481,
    "lng": 151.2281169,
    "popularity": 114
  },
  {
    "name": "McElhone Stairs",
    "address": "Victoria St",
    "lat": -33.8689946,
    "lng": 151.2228106,
    "popularity": 114
  },
  {
    "name": "Manly Art Gallery & Museum",
    "address": "West Esplanade",
    "lat": -33.7984912,
    "lng": 151.2813384,
    "popularity": 113
  },
  {
    "name": "Ben Buckler Point",
    "address": "Ramsgate Ave",
    "lat": -33.8930145,
    "lng": 151.2841593,
    "popularity": 112
  },
  {
    "name": "St John’s Cemetery",
    "address": "O'Connell St",
    "lat": -33.8168193,
    "lng": 150.9983998,
    "popularity": 112
  },
  {
    "name": "Campbell’s Storehouses",
    "address": "7 Circular Quay West",
    "lat": -33.8570311,
    "lng": 151.2092115,
    "popularity": 111
  },
  {
    "name": "Great Synagogue",
    "address": "187a Elizabeth St",
    "lat": -33.872601,
    "lng": 151.209592,
    "popularity": 110
  },
  {
    "name": "Rocks Discovery Museum",
    "address": "Kendall Lane",
    "lat": -33.8587022,
    "lng": 151.2086172,
    "popularity": 110
  },
  {
    "name": "Artspace",
    "address": "43-51 Cowper Wharf Rd",
    "lat": -33.8694179,
    "lng": 151.2205772,
    "popularity": 110
  },
  {
    "name": "Calyx",
    "address": "Royal Botanic Garden",
    "lat": -33.8658633,
    "lng": 151.2150763,
    "popularity": 109
  },
  {
    "name": "Bellevue Park",
    "address": "Bellevue Park Rd",
    "lat": -33.8874957,
    "lng": 151.2596667,
    "popularity": 109
  },
  {
    "name": "Tank Stream Fountain",
    "address": "Herald Sq, Alfred St",
    "lat": -33.8614357,
    "lng": 151.2084067,
    "popularity": 108
  },
  {
    "name": "St Patrick’s College",
    "address": "151 Darley Rd",
    "lat": -33.8736385,
    "lng": 151.0755671,
    "popularity": 107
  },
  {
    "name": "Yurulbin Point",
    "address": "Louisa Rd",
    "lat": -33.8467683,
    "lng": 151.1862088,
    "popularity": 107
  },
  {
    "name": "Cobblers Beach",
    "address": "Cobblers Beach Rd",
    "lat": -33.8259847,
    "lng": 151.2633459,
    "popularity": 107
  },
  {
    "name": "Commonwealth Bank branch",
    "address": "48 Martin Place",
    "lat": -33.8868234,
    "lng": 151.2136025,
    "popularity": 107
  },
  {
    "name": "Experiment Farm Cottage",
    "address": "9 Ruse St",
    "lat": -33.820226,
    "lng": 151.012588,
    "popularity": 107
  },
  {
    "name": "Wendy Whiteley's Secret Garden",
    "address": "",
    "lat": -33.843829,
    "lng": 151.208128,
    "popularity": 106
  },
  {
    "name": "Mary MacKillop Place",
    "address": "7 Mount St",
    "lat": -33.8391844,
    "lng": 151.2052719,
    "popularity": 106
  },
  {
    "name": "The Cross Arts Projects",
    "address": "8 Llankelly Pl",
    "lat": -33.872316,
    "lng": 151.2244953,
    "popularity": 106
  },
  {
    "name": "Sydney Jewish Museum",
    "address": "148 Darlinghurst Rd",
    "lat": -33.8789893,
    "lng": 151.2202955,
    "popularity": 106
  },
  {
    "name": "Chau Chak Wing Museum",
    "address": "University Pl",
    "lat": -33.878518,
    "lng": 151.1995418,
    "popularity": 105
  },
  {
    "name": "Watch House",
    "address": "179 Darling St",
    "lat": -33.8076982,
    "lng": 150.9137484,
    "popularity": 104
  },
  {
    "name": "Waterman’s Cottage",
    "address": "12 Darling St",
    "lat": -33.8633637,
    "lng": 151.202251,
    "popularity": 103
  },
  {
    "name": "Hambledon Cottage",
    "address": "63 Hassall St",
    "lat": -33.8189566,
    "lng": 151.0148565,
    "popularity": 102
  },
  {
    "name": "Christ Church St Lawrence",
    "address": "812 George St",
    "lat": -33.8820331,
    "lng": 151.2049057,
    "popularity": 102
  },
  {
    "name": "May Gibbs’ Nutcote",
    "address": "5 Wallaringa Ave",
    "lat": -33.841877,
    "lng": 151.221673,
    "popularity": 101
  },
  {
    "name": "Washaway Beach",
    "address": "Cutler Rd",
    "lat": -33.8150681,
    "lng": 151.2633911,
    "popularity": 101
  },
  {
    "name": "Kalkari Discovery Centre",
    "address": "Ku-ring-gai Chase Rd",
    "lat": -33.6654406,
    "lng": 151.1492525,
    "popularity": 101
  },
  {
    "name": "SH Ervin Gallery",
    "address": "Watson Rd",
    "lat": -33.8613623,
    "lng": 151.2043192,
    "popularity": 101
  },
  {
    "name": "St Patrick’s Church",
    "address": "20 Grosvenor St",
    "lat": -33.774142,
    "lng": 150.8987646,
    "popularity": 100
  },
  {
    "name": "Clontarf Cottage",
    "address": "4 Wallace St",
    "lat": -33.85932620000001,
    "lng": 151.1877916,
    "popularity": 100
  },
  {
    "name": "Aboriginal Rock Engravings",
    "address": "5 Military Rd",
    "lat": -33.8861999,
    "lng": 151.2855106,
    "popularity": 100
  },
  {
    "name": "Wet'n'Wild Sydney",
    "address": "427 Reservoir Rd",
    "lat": -33.80697019999999,
    "lng": 150.910231,
    "popularity": 100
  },
  {
    "name": "Juniper Hall",
    "address": "250 Oxford St",
    "lat": -33.8847131,
    "lng": 151.2268132,
    "popularity": 100
  },
  {
    "name": "Chowder Bay Beach",
    "address": "Clifton Gardens Reserve",
    "lat": -33.8334206,
    "lng": 151.2599583,
    "popularity": 100
  },
  {
    "name": "Dr Mary Booth Reserve Foreshore Walkway",
    "address": "",
    "lat": -33.8502426,
    "lng": 151.2158099,
    "popularity": 100
  },
  {
    "name": "Jubilee & Bicentennial Parks",
    "address": "Glebe Point Rd",
    "lat": -33.8499738,
    "lng": 151.0792872,
    "popularity": 100
  },
  {
    "name": "St Mary’s Hall",
    "address": "7 Adolphus St",
    "lat": -33.7704557,
    "lng": 150.7735782,
    "popularity": 100
  },
  {
    "name": "St Philip’s Church",
    "address": "3 York St",
    "lat": -33.7942553,
    "lng": 151.0782058,
    "popularity": 100
  }
]
