[
  {
    "name": "Curtin University",
    "address": "",
    "lat": -32.0061951,
    "lng": 115.8944182,
    "popularity": 3643
  },
  {
    "name": "Cottesloe Beach",
    "address": "Marine Pde",
    "lat": -31.9938622,
    "lng": 115.7510477,
    "popularity": 1725
  },
  {
    "name": "Perth Zoo",
    "address": "20 Labouchere Rd",
    "lat": -31.9758335,
    "lng": 115.853634,
    "popularity": 1371
  },
  {
    "name": "Scarborough Beach",
    "address": "The Esplanade",
    "lat": -31.8935181,
    "lng": 115.7548947,
    "popularity": 943
  },
  {
    "name": "Bell Tower",
    "address": "Barrack Sq",
    "lat": -31.9589415,
    "lng": 115.8582456,
    "popularity": 751
  },
  {
    "name": "City Beach",
    "address": "Challenger Pde",
    "lat": -31.934,
    "lng": 115.764,
    "popularity": 640
  },
  {
    "name": "Perth Showgrounds",
    "address": "Gugeri St",
    "lat": -31.9770531,
    "lng": 115.7868884,
    "popularity": 548
  },
  {
    "name": "Kings Park & Botanic Garden",
    "address": "",
    "lat": -31.9609106,
    "lng": 115.8321929,
    "popularity": 502
  },
  {
    "name": "Art Gallery of Western Australia",
    "address": "",
    "lat": -31.950414,
    "lng": 115.860604,
    "popularity": 461
  },
  {
    "name": "Elizabeth Quay",
    "address": "",
    "lat": -31.9582997,
    "lng": 115.8566126,
    "popularity": 384
  },
  {
    "name": "Hyde Park",
    "address": "William St",
    "lat": -31.9380399,
    "lng": 115.8624211,
    "popularity": 369
  },
  {
    "name": "Lake Monger",
    "address": "Lake Monger Dr",
    "lat": -31.9294849,
    "lng": 115.8270364,
    "popularity": 361
  },
  {
    "name": "Supreme Court",
    "address": "",
    "lat": -31.9574492,
    "lng": 115.8613648,
    "popularity": 354
  },
  {
    "name": "Trigg Beach",
    "address": "West Coast Hwy",
    "lat": -31.8753469,
    "lng": 115.7515562,
    "popularity": 352
  },
  {
    "name": "Aquarium of Western Australia",
    "address": "Hillarys Boat Harbour, 91 Southside Dr",
    "lat": -31.826797,
    "lng": 115.737855,
    "popularity": 302
  },
  {
    "name": "Floreat Beach",
    "address": "West Coast Hwy",
    "lat": -31.9289589,
    "lng": 115.7548868,
    "popularity": 227
  },
  {
    "name": "St Mary's Cathedral",
    "address": "Victoria Sq",
    "lat": -31.95541769999999,
    "lng": 115.8667088,
    "popularity": 224
  },
  {
    "name": "Perth Mint",
    "address": "310 Hay St",
    "lat": -31.956821,
    "lng": 115.869405,
    "popularity": 213
  },
  {
    "name": "St George's Cathedral",
    "address": "St Georges Tce",
    "lat": -31.9557089,
    "lng": 115.8612365,
    "popularity": 169
  },
  {
    "name": "Swanbourne Beach",
    "address": "Marine Pde",
    "lat": -31.9709363,
    "lng": 115.7543761,
    "popularity": 133
  },
  {
    "name": "Lotterywest Federation Walkway",
    "address": "",
    "lat": -31.9637848,
    "lng": 115.8398597,
    "popularity": 131
  },
  {
    "name": "Scitech",
    "address": "City West Centre, Sutherland St",
    "lat": -31.9438837,
    "lng": 115.8469624,
    "popularity": 128
  },
  {
    "name": "Crown Perth Casino",
    "address": "",
    "lat": -31.961538,
    "lng": 115.895183,
    "popularity": 126
  },
  {
    "name": "Mettams Pool",
    "address": "West Coast Dr",
    "lat": -31.8637906,
    "lng": 115.7518798,
    "popularity": 115
  },
  {
    "name": "Perth Institute of Contemporary Arts",
    "address": "",
    "lat": -31.9498346,
    "lng": 115.8602402,
    "popularity": 108
  },
  {
    "name": "Western Australian Museum â€“ Perth",
    "address": "Perth Cultural Centre",
    "lat": -31.950414,
    "lng": 115.860604,
    "popularity": 100
  },
  {
    "name": "Nostalgia Box",
    "address": "16 Aberdeen St",
    "lat": -31.947531,
    "lng": 115.861973,
    "popularity": 100
  }
]
