[
  {
    "name": "Sambódromo",
    "address": "Marques do Sapuçai",
    "lat": -22.9114522,
    "lng": -43.196804,
    "popularity": 9903
  },
  {
    "name": "Jardim Botânico",
    "address": "Jardim Botânico 920",
    "lat": -22.9673717,
    "lng": -43.2250381,
    "popularity": 9010
  },
  {
    "name": "Pão de Açúcar",
    "address": "Av Pasteur 520",
    "lat": -22.9492586,
    "lng": -43.1545757,
    "popularity": 6261
  },
  {
    "name": "Copacabana Beach",
    "address": "Av Atlântica",
    "lat": -22.9738729,
    "lng": -43.18531,
    "popularity": 6045
  },
  {
    "name": "Ipanema Beach",
    "address": "Av Vieira Souto",
    "lat": -22.984667,
    "lng": -43.1985932,
    "popularity": 4484
  },
  {
    "name": "Cristo Redentor",
    "address": "cog station, Cosme Velho 513",
    "lat": -22.951916,
    "lng": -43.2104872,
    "popularity": 4135
  },
  {
    "name": "Cidade do Samba",
    "address": "Rivadávia Correa 60",
    "lat": -22.8955667,
    "lng": -43.1975811,
    "popularity": 2207
  },
  {
    "name": "Lagoa Rodrigo de Freitas",
    "address": "",
    "lat": -22.9738464,
    "lng": -43.2110285,
    "popularity": 1812
  },
  {
    "name": "Parque Lage",
    "address": "Jardim Botânico 414",
    "lat": -22.9581535,
    "lng": -43.2116429,
    "popularity": 1657
  },
  {
    "name": "Forte de Copacabana",
    "address": "Av Atlântica & Rua Francisco Otaviano",
    "lat": -22.9861625,
    "lng": -43.1865448,
    "popularity": 1565
  },
  {
    "name": "Museu Nacional",
    "address": "",
    "lat": -22.90576,
    "lng": -43.2265289,
    "popularity": 1394
  },
  {
    "name": "Escadaria Selarón",
    "address": "stairway btwn Joaquim Silva in Lapa & Pinto Martins in Santa Teresa",
    "lat": -22.9153106,
    "lng": -43.1792038,
    "popularity": 1208
  },
  {
    "name": "Praia Vermelha",
    "address": "Praça General Tibúrcio",
    "lat": -22.9551629,
    "lng": -43.1646972,
    "popularity": 1194
  },
  {
    "name": "Praia de Leblon",
    "address": "",
    "lat": -22.987277,
    "lng": -43.221161,
    "popularity": 1169
  },
  {
    "name": "Museu de Arte do Rio",
    "address": "Praça Mauá 5",
    "lat": -22.8967084,
    "lng": -43.1820523,
    "popularity": 1134
  },
  {
    "name": "Praia da Barra da Tijuca",
    "address": "Av Sernambetiba",
    "lat": -23.013023,
    "lng": -43.3200848,
    "popularity": 979
  },
  {
    "name": "Praia de Botafogo",
    "address": "Av dos Naçoes Unidas",
    "lat": -22.9458214,
    "lng": -43.1822487,
    "popularity": 914
  },
  {
    "name": "Bonde",
    "address": "",
    "lat": -22.9102601,
    "lng": -43.1786305,
    "popularity": 827
  },
  {
    "name": "Paço Imperial",
    "address": "Praça XV (Quinze) de Novembro 48",
    "lat": -22.90359,
    "lng": -43.1742752,
    "popularity": 795
  },
  {
    "name": "Centro Cultural Banco do Brasil",
    "address": "Primeiro de Março 66",
    "lat": -22.9008003,
    "lng": -43.17642499999999,
    "popularity": 687
  },
  {
    "name": "Museu de Arte Moderna",
    "address": "Av Infante Dom Henrique 85",
    "lat": -22.9134076,
    "lng": -43.1720312,
    "popularity": 687
  },
  {
    "name": "Theatro Municipal",
    "address": "Av 13 de Maio, Praça Floriano",
    "lat": -22.9090481,
    "lng": -43.1765575,
    "popularity": 662
  },
  {
    "name": "Praia da Urca",
    "address": "Av João Luís Alves",
    "lat": -22.9479438,
    "lng": -43.1633395,
    "popularity": 656
  },
  {
    "name": "Ilha de Paquetá",
    "address": "",
    "lat": -22.7660822,
    "lng": -43.1080757,
    "popularity": 645
  },
  {
    "name": "Catedral Metropolitana",
    "address": "Av República do Chile 245",
    "lat": -22.9106741,
    "lng": -43.180777,
    "popularity": 607
  },
  {
    "name": "Museu Histórico Nacional",
    "address": "off General Justo",
    "lat": -22.9059083,
    "lng": -43.16951299999999,
    "popularity": 601
  },
  {
    "name": "Ilha Fiscal",
    "address": "",
    "lat": -22.8969444,
    "lng": -43.1669444,
    "popularity": 585
  },
  {
    "name": "Parque da Cidade",
    "address": "Estrada de Santa Marinha 505",
    "lat": -22.9768058,
    "lng": -43.2440554,
    "popularity": 518
  },
  {
    "name": "Arcos da Lapa",
    "address": "",
    "lat": -22.9130414,
    "lng": -43.1799591,
    "popularity": 517
  },
  {
    "name": "Parque Nacional da Tijuca",
    "address": "",
    "lat": -22.949891,
    "lng": -43.27147,
    "popularity": 494
  },
  {
    "name": "Museu da República",
    "address": "Rua do Catete 153",
    "lat": -22.9258592,
    "lng": -43.17622069999999,
    "popularity": 465
  },
  {
    "name": "Real Gabinete Português de Leitura",
    "address": "Luís de Camões 30",
    "lat": -22.9054107,
    "lng": -43.1822088,
    "popularity": 451
  },
  {
    "name": "Marina da Glória",
    "address": "Av Infante Dom Henrique s/n, Glória",
    "lat": -22.92024,
    "lng": -43.169873,
    "popularity": 442
  },
  {
    "name": "Palácio Tiradentes",
    "address": "Primeiro de Março",
    "lat": -22.9034581,
    "lng": -43.17332529999999,
    "popularity": 442
  },
  {
    "name": "Fundição Progresso",
    "address": "Rua dos Arcos 24",
    "lat": -22.9124364,
    "lng": -43.1805987,
    "popularity": 434
  },
  {
    "name": "Parque das Ruínas",
    "address": "Murtinho Nobre 169",
    "lat": -22.9178701,
    "lng": -43.1825209,
    "popularity": 396
  },
  {
    "name": "Jardim Zoológico",
    "address": "",
    "lat": -22.9044037,
    "lng": -43.2289427,
    "popularity": 393
  },
  {
    "name": "Complexo do Alemão",
    "address": "",
    "lat": -22.8593331,
    "lng": -43.2754759,
    "popularity": 384
  },
  {
    "name": "Forte Duque de Caxias",
    "address": "Praça Almirante Júlio de Noronha",
    "lat": -22.963191,
    "lng": -43.162384,
    "popularity": 375
  },
  {
    "name": "Mosteiro de São Bento",
    "address": "Dom Gerardo 68",
    "lat": -22.8968357,
    "lng": -43.17796999999999,
    "popularity": 374
  },
  {
    "name": "Morro da Conceição",
    "address": "",
    "lat": -22.8986111,
    "lng": -43.1830556,
    "popularity": 361
  },
  {
    "name": "Praça XV (Quinze) de Novembro",
    "address": "",
    "lat": -22.9032147,
    "lng": -43.1725408,
    "popularity": 354
  },
  {
    "name": "Mirante do Leblon",
    "address": "Av Niemeyer",
    "lat": -22.9899755,
    "lng": -43.2273807,
    "popularity": 349
  },
  {
    "name": "Ponte Rio-Niterói",
    "address": "",
    "lat": -22.8811229,
    "lng": -43.21344209999999,
    "popularity": 348
  },
  {
    "name": "Parque do Flamengo",
    "address": "",
    "lat": -22.9283171,
    "lng": -43.1731579,
    "popularity": 326
  },
  {
    "name": "Biblioteca Nacional",
    "address": "Av Rio Branco 219",
    "lat": -22.9097402,
    "lng": -43.1754081,
    "popularity": 315
  },
  {
    "name": "Centro Cultural Correios",
    "address": "Visconde de Itaboraí 20",
    "lat": -22.9012722,
    "lng": -43.1758263,
    "popularity": 313
  },
  {
    "name": "Museu do Arte Contemporânea",
    "address": "Mirante da Boa Viagem",
    "lat": -22.9078358,
    "lng": -43.125867,
    "popularity": 313
  },
  {
    "name": "Praça Floriano",
    "address": "Av Rio Branco",
    "lat": -22.9107044,
    "lng": -43.1760081,
    "popularity": 311
  },
  {
    "name": "Pista Cláudio Coutinho",
    "address": "",
    "lat": -22.9540107,
    "lng": -43.1645685,
    "popularity": 300
  },
  {
    "name": "Igreja da Penha",
    "address": "Largo da Penha 19",
    "lat": -22.8391227,
    "lng": -43.2796236,
    "popularity": 297
  },
  {
    "name": "Largo do Boticário",
    "address": "Cosme Velho 822",
    "lat": -22.9394746,
    "lng": -43.2013675,
    "popularity": 283
  },
  {
    "name": "Parque Olímpico",
    "address": "",
    "lat": -22.9766933,
    "lng": -43.394635,
    "popularity": 265
  },
  {
    "name": "Campo de Santana",
    "address": "Praça da República & Rua Frei Caneca",
    "lat": -22.9069485,
    "lng": -43.1885111,
    "popularity": 263
  },
  {
    "name": "Bosque da Barra",
    "address": "Av das Américas 6000",
    "lat": -22.9977158,
    "lng": -43.3693324,
    "popularity": 262
  },
  {
    "name": "Museu do Amanhã",
    "address": "Rodrigues Alves 1",
    "lat": -22.8939768,
    "lng": -43.1794345,
    "popularity": 259
  },
  {
    "name": "Feira Nordestina",
    "address": "Campo de São Cristóvão",
    "lat": -22.8972285,
    "lng": -43.2202363,
    "popularity": 254
  },
  {
    "name": "Parque Guinle",
    "address": "Paulo Cesar de Andrade 407",
    "lat": -22.929882,
    "lng": -43.183931,
    "popularity": 241
  },
  {
    "name": "Praia de Diabo",
    "address": "",
    "lat": -22.9883563,
    "lng": -43.1895847,
    "popularity": 239
  },
  {
    "name": "Parque da Catacumba",
    "address": "Av Epitácio Pessoa",
    "lat": -22.9622272,
    "lng": -43.19736839999999,
    "popularity": 236
  },
  {
    "name": "Passeio Público",
    "address": "Rua do Passeio",
    "lat": -22.913381,
    "lng": -43.1766358,
    "popularity": 229
  },
  {
    "name": "Museu Nacional de Belas Artes",
    "address": "Rio Branco 199",
    "lat": -22.90876,
    "lng": -43.1757007,
    "popularity": 227
  },
  {
    "name": "Museu Naval",
    "address": "Dom Manuel 15",
    "lat": -22.9038936,
    "lng": -43.17302979999999,
    "popularity": 224
  },
  {
    "name": "Casa França-Brasil",
    "address": "Visconde de Itaboraí 78",
    "lat": -22.9005462,
    "lng": -43.17600270000001,
    "popularity": 210
  },
  {
    "name": "Espaço Tom Jobim",
    "address": "Jardim Botânico 1008",
    "lat": -22.9705387,
    "lng": -43.2248427,
    "popularity": 193
  },
  {
    "name": "São João Batista",
    "address": "",
    "lat": -22.9593179,
    "lng": -43.1884904,
    "popularity": 192
  },
  {
    "name": "Igreja de Nossa Senhora da Glória do Outeiro",
    "address": "Praça NS da Glória 135",
    "lat": -22.9214885,
    "lng": -43.1753973,
    "popularity": 189
  },
  {
    "name": "Museu Chácara do Céu",
    "address": "Murtinho Nobre 93",
    "lat": -22.9174124,
    "lng": -43.1839015,
    "popularity": 188
  },
  {
    "name": "Travessa do Comércio",
    "address": "",
    "lat": -22.9023814,
    "lng": -43.1749887,
    "popularity": 182
  },
  {
    "name": "Teatro Popular",
    "address": "Av Jornalista Rogério Coelho Neto",
    "lat": -22.8899881,
    "lng": -43.1283223,
    "popularity": 182
  },
  {
    "name": "AquaRio",
    "address": "Av Rodrigues Alves 379",
    "lat": -22.8931071,
    "lng": -43.1927841,
    "popularity": 181
  },
  {
    "name": "Parque do Marapendi",
    "address": "Av Sernambetiba",
    "lat": -23.0151729,
    "lng": -43.4440105,
    "popularity": 177
  },
  {
    "name": "Instituto Moreira Salles",
    "address": "Marquês de São Vicente 476",
    "lat": -22.9816465,
    "lng": -43.2394838,
    "popularity": 167
  },
  {
    "name": "Morro da Providência",
    "address": "",
    "lat": -22.9002778,
    "lng": -43.1952778,
    "popularity": 164
  },
  {
    "name": "Igreja de Nossa Senhora de Candelária",
    "address": "Praça Pio X",
    "lat": -22.9008826,
    "lng": -43.1778419,
    "popularity": 163
  },
  {
    "name": "Largo do Guimarães",
    "address": "Almirante Alexandrino",
    "lat": -22.9215545,
    "lng": -43.1860341,
    "popularity": 163
  },
  {
    "name": "Igreja de Nossa Senhora do Carmo da Antiga Sé",
    "address": "Sete de Setembro 14",
    "lat": -22.9033915,
    "lng": -43.1753951,
    "popularity": 159
  },
  {
    "name": "Parque Garota de Ipanema",
    "address": "",
    "lat": -22.9884615,
    "lng": -43.1911664,
    "popularity": 155
  },
  {
    "name": "Mirante do Pasmado",
    "address": "Bartolomeu Portela",
    "lat": -22.9514239,
    "lng": -43.17815,
    "popularity": 153
  },
  {
    "name": "Arco de Teles",
    "address": "Travessa do Comércio",
    "lat": -22.902715,
    "lng": -43.174655,
    "popularity": 152
  },
  {
    "name": "Parque do Catete",
    "address": "",
    "lat": -22.9258592,
    "lng": -43.17622069999999,
    "popularity": 148
  },
  {
    "name": "Centro Cultural Justiça Federal",
    "address": "Av Rio Branco 241",
    "lat": -22.9105487,
    "lng": -43.1752081,
    "popularity": 144
  },
  {
    "name": "Centro Carioca de Design",
    "address": "Praça Tiradentes 48",
    "lat": -22.9061098,
    "lng": -43.1832688,
    "popularity": 136
  },
  {
    "name": "CADEG",
    "address": "Capitão Félix 110, Benfica",
    "lat": -22.894748,
    "lng": -43.236614,
    "popularity": 133
  },
  {
    "name": "Sítio Burle Marx",
    "address": "Estrada da Barra de Guaratiba 2019",
    "lat": -23.0235887,
    "lng": -43.5468649,
    "popularity": 128
  },
  {
    "name": "Museu do Índio",
    "address": "Rua das Palmeiras 55",
    "lat": -22.9519334,
    "lng": -43.1910269,
    "popularity": 124
  },
  {
    "name": "Bonde Station",
    "address": "Lélio Gama 65",
    "lat": -22.9102601,
    "lng": -43.1786305,
    "popularity": 118
  },
  {
    "name": "Centro Cultural Laurinda Santos Lobo",
    "address": "Monte Alegre 306",
    "lat": -22.9200272,
    "lng": -43.188671,
    "popularity": 116
  },
  {
    "name": "Largo das Neves",
    "address": "",
    "lat": -22.9163759,
    "lng": -43.1917223,
    "popularity": 114
  },
  {
    "name": "Planetário",
    "address": "Av Padre Leonel Franca 240",
    "lat": -22.978183,
    "lng": -43.23028799999999,
    "popularity": 114
  },
  {
    "name": "Museu do Imagem e Som",
    "address": "Av Atlântica",
    "lat": -22.9141278,
    "lng": -43.1786251,
    "popularity": 114
  },
  {
    "name": "Sports Museum",
    "address": "",
    "lat": -22.9121089,
    "lng": -43.2301558,
    "popularity": 113
  },
  {
    "name": "Centro Cultural Oi Futuro",
    "address": "Dois de Dezembro 63",
    "lat": -22.9300338,
    "lng": -43.1764946,
    "popularity": 111
  },
  {
    "name": "Centro de Arte Hélio Oiticica",
    "address": "Luis de Camões 68",
    "lat": -22.9059352,
    "lng": -43.1833078,
    "popularity": 109
  },
  {
    "name": "Museu Amsterdam Sauer",
    "address": "Garcia d'Ávila 105",
    "lat": -22.9837032,
    "lng": -43.2092819,
    "popularity": 109
  },
  {
    "name": "H Stern",
    "address": "Garcia d'Ávila 113",
    "lat": -22.9835562,
    "lng": -43.2094753,
    "popularity": 108
  },
  {
    "name": "Igreja São Francisco da Penitência & Convento de Santo Antônio",
    "address": "Largo da Carioca 5",
    "lat": -22.9073859,
    "lng": -43.179075,
    "popularity": 108
  },
  {
    "name": "Museu Casa de Rui Barbosa",
    "address": "São Clemente 134",
    "lat": -22.9487766,
    "lng": -43.1870914,
    "popularity": 108
  },
  {
    "name": "Mirante do Sacopã",
    "address": "",
    "lat": -22.9722932,
    "lng": -43.2035247,
    "popularity": 106
  },
  {
    "name": "Museu do Primeiro Reinado",
    "address": "Av Dom Pedro II 293",
    "lat": -22.9045952,
    "lng": -43.2170402,
    "popularity": 104
  },
  {
    "name": "Museu Villa-Lobos",
    "address": "Sorocaba 200",
    "lat": -22.9518837,
    "lng": -43.1905195,
    "popularity": 104
  },
  {
    "name": "Ponta do Arpoador",
    "address": "Av Vieira Souto",
    "lat": -22.9886205,
    "lng": -43.1930468,
    "popularity": 103
  },
  {
    "name": "Museu do Meio Ambiente",
    "address": "Jardim Botânico 1008",
    "lat": -22.9679861,
    "lng": -43.2206353,
    "popularity": 103
  },
  {
    "name": "GaleRio",
    "address": "São Clemente 117",
    "lat": -22.9143859,
    "lng": -43.18465459999999,
    "popularity": 103
  },
  {
    "name": "Igreja de Nossa Senhora do Rosário e São Benedito",
    "address": "Uruguaiana 77",
    "lat": -22.904075,
    "lng": -43.1802758,
    "popularity": 102
  },
  {
    "name": "Elevador do Morro do Cantagalo",
    "address": "Barão da Torre & Teixeira de Melo",
    "lat": -22.9783333,
    "lng": -43.1952778,
    "popularity": 102
  },
  {
    "name": "Museu de Arte Sacra",
    "address": "Av República do Chile 245",
    "lat": -22.9108978,
    "lng": -43.1806653,
    "popularity": 101
  },
  {
    "name": "Museu Internacional de Arte Naïf do Brasil",
    "address": "Cosme Velho 561",
    "lat": -22.9404154,
    "lng": -43.1989221,
    "popularity": 101
  },
  {
    "name": "Colônia dos Pescadores",
    "address": "Av Atlântica",
    "lat": -22.8389946,
    "lng": -43.2541974,
    "popularity": 101
  },
  {
    "name": "Casa de Benjamin Constant",
    "address": "Monte Alegre 255",
    "lat": -22.9191283,
    "lng": -43.187223,
    "popularity": 101
  },
  {
    "name": "Museu de Folclore Edison Carneiro",
    "address": "Rua do Catete 179",
    "lat": -22.9264764,
    "lng": -43.1763482,
    "popularity": 100
  },
  {
    "name": "Casa do Pontal",
    "address": "Estrada do Pontal 3295",
    "lat": -23.02417,
    "lng": -43.5101325,
    "popularity": 100
  },
  {
    "name": "Gay Section of Beach",
    "address": "",
    "lat": -23.0130411,
    "lng": -43.3889949,
    "popularity": 100
  },
  {
    "name": "Parque Ecológico Chico Mendes",
    "address": "Km 17, Av Jarbas de Carvalho 679",
    "lat": -23.0225915,
    "lng": -43.4718761,
    "popularity": 100
  },
  {
    "name": "Fundação Eva Klabin",
    "address": "Av Epitácio Pessoa 2480",
    "lat": -22.9757626,
    "lng": -43.198204,
    "popularity": 100
  },
  {
    "name": "Bairro Peixoto",
    "address": "Anita Garibaldi",
    "lat": -22.9534256,
    "lng": -43.024955,
    "popularity": 100
  }
]
