[
  {
    "name": "Colosseum",
    "address": "Piazza del Colosseo",
    "lat": 41.8902102,
    "lng": 12.4922309,
    "popularity": 32401
  },
  {
    "name": "Pantheon",
    "address": "Piazza della Rotonda",
    "lat": 41.8986108,
    "lng": 12.4768729,
    "popularity": 23969
  },
  {
    "name": "Vatican Museums",
    "address": "Viale Vaticano",
    "lat": 41.9064878,
    "lng": 12.4536413,
    "popularity": 21613
  },
  {
    "name": "Roman Forum",
    "address": "Largo della Salara Vecchia, Piazza di Santa Maria Nova",
    "lat": 41.8924623,
    "lng": 12.485325,
    "popularity": 18611
  },
  {
    "name": "St Peter's Basilica",
    "address": "St Peter's Square",
    "lat": 41.9021667,
    "lng": 12.4539367,
    "popularity": 18485
  },
  {
    "name": "Piazza Navona",
    "address": "",
    "lat": 41.8991633,
    "lng": 12.4730742,
    "popularity": 16083
  },
  {
    "name": "Trevi Fountain",
    "address": "Piazza di Trevi",
    "lat": 41.9009325,
    "lng": 12.483313,
    "popularity": 10741
  },
  {
    "name": "Castel Sant'Angelo",
    "address": "Lungotevere Castello 50",
    "lat": 41.9030632,
    "lng": 12.466276,
    "popularity": 10697
  },
  {
    "name": "Villa Borghese",
    "address": "",
    "lat": 41.9128873,
    "lng": 12.4852085,
    "popularity": 7075
  },
  {
    "name": "St Peter's Square",
    "address": "",
    "lat": 41.902218,
    "lng": 12.456796,
    "popularity": 6844
  },
  {
    "name": "Piazza del Popolo",
    "address": "",
    "lat": 41.9110159,
    "lng": 12.47619,
    "popularity": 6716
  },
  {
    "name": "Stadio",
    "address": "Via di San Gregorio 30",
    "lat": 41.93407699999999,
    "lng": 12.454725,
    "popularity": 6359
  },
  {
    "name": "Vittoriano",
    "address": "Piazza Venezia",
    "lat": 41.8945976,
    "lng": 12.4831269,
    "popularity": 6108
  },
  {
    "name": "Palatino",
    "address": "Via di San Gregorio 30, Piazza di Santa Maria Nova",
    "lat": 41.8894036,
    "lng": 12.4874662,
    "popularity": 5813
  },
  {
    "name": "Museo di Roma",
    "address": "Piazza di San Pantaleo 10 & Piazza Navona 2",
    "lat": 41.8973153,
    "lng": 12.4728722,
    "popularity": 4563
  },
  {
    "name": "Obelisk",
    "address": "Piazza del Popolo",
    "lat": 41.91079329999999,
    "lng": 12.4797509,
    "popularity": 4301
  },
  {
    "name": "Obelisk",
    "address": "",
    "lat": 41.91079329999999,
    "lng": 12.4797509,
    "popularity": 4301
  },
  {
    "name": "Obelisk",
    "address": "Piazza di Montecitorio",
    "lat": 41.91079329999999,
    "lng": 12.4797509,
    "popularity": 4301
  },
  {
    "name": "Ponte Sant’Angelo",
    "address": "",
    "lat": 41.9024022,
    "lng": 12.4664014,
    "popularity": 3793
  },
  {
    "name": "Piazza Colonna",
    "address": "",
    "lat": 41.9011436,
    "lng": 12.4799009,
    "popularity": 3616
  },
  {
    "name": "Capitoline Museums",
    "address": "Piazza del Campidoglio 1",
    "lat": 41.8929428,
    "lng": 12.4825577,
    "popularity": 3426
  },
  {
    "name": "Sistine Chapel",
    "address": "Viale Vaticano",
    "lat": 41.9029468,
    "lng": 12.4544835,
    "popularity": 3388
  },
  {
    "name": "Via Sacra",
    "address": "Largo della Salara Vecchia",
    "lat": 41.8905324,
    "lng": 12.4891526,
    "popularity": 3009
  },
  {
    "name": "Circo Massimo",
    "address": "Piazza di Porta Capena",
    "lat": 41.88613340000001,
    "lng": 12.4851335,
    "popularity": 2952
  },
  {
    "name": "Auditorium Parco della Musica",
    "address": "Viale Pietro de Coubertin",
    "lat": 41.92906500000001,
    "lng": 12.475024,
    "popularity": 2752
  },
  {
    "name": "Campo de' Fiori",
    "address": "",
    "lat": 41.8955939,
    "lng": 12.4721808,
    "popularity": 2589
  },
  {
    "name": "St Peter’s Basilica Dome",
    "address": "St Peter's Square",
    "lat": 41.9021667,
    "lng": 12.4539367,
    "popularity": 2477
  },
  {
    "name": "Bioparco",
    "address": "Viale del Giardino Zoologico 1",
    "lat": 41.9170022,
    "lng": 12.4878378,
    "popularity": 2207
  },
  {
    "name": "Isola Tiberina",
    "address": "",
    "lat": 41.8905191,
    "lng": 12.477829,
    "popularity": 2180
  },
  {
    "name": "Piazza del Campidoglio",
    "address": "",
    "lat": 41.8933592,
    "lng": 12.4828018,
    "popularity": 2087
  },
  {
    "name": "Foro Italico",
    "address": "Viale del Foro Italico",
    "lat": 41.9313327,
    "lng": 12.4566153,
    "popularity": 2058
  },
  {
    "name": "Piazza Vittorio Emanuele II",
    "address": "",
    "lat": 41.8951173,
    "lng": 12.5048384,
    "popularity": 2019
  },
  {
    "name": "Arco di Costantino",
    "address": "Via di San Gregorio",
    "lat": 41.8897697,
    "lng": 12.4906017,
    "popularity": 1995
  },
  {
    "name": "Piazza di Spagna & the Spanish Steps",
    "address": "",
    "lat": 41.90599,
    "lng": 12.482775,
    "popularity": 1922
  },
  {
    "name": "Piazza della Repubblica",
    "address": "",
    "lat": 41.9027916,
    "lng": 12.4959551,
    "popularity": 1747
  },
  {
    "name": "Imperial Forums",
    "address": "Via dei Fori Imperiali",
    "lat": 41.8933241,
    "lng": 12.486989,
    "popularity": 1724
  },
  {
    "name": "Via Giulia",
    "address": "",
    "lat": 41.8962558,
    "lng": 12.4681342,
    "popularity": 1695
  },
  {
    "name": "Basilica di Santa Maria Maggiore",
    "address": "Piazza Santa Maria Maggiore",
    "lat": 41.89759859999999,
    "lng": 12.4984084,
    "popularity": 1591
  },
  {
    "name": "Villa Torlonia",
    "address": "Via Nomentana 70",
    "lat": 41.9133345,
    "lng": 12.511711,
    "popularity": 1550
  },
  {
    "name": "Terme di Caracalla",
    "address": "Viale delle Terme di Caracalla 52",
    "lat": 41.8790382,
    "lng": 12.4924394,
    "popularity": 1500
  },
  {
    "name": "Fontana dei Quattro Fiumi",
    "address": "Piazza Navona",
    "lat": 41.8989673,
    "lng": 12.4730872,
    "popularity": 1454
  },
  {
    "name": "Basilica di San Giovanni in Laterano",
    "address": "Piazza di San Giovanni in Laterano 4",
    "lat": 41.8858811,
    "lng": 12.505673,
    "popularity": 1446
  },
  {
    "name": "Bocca della Verità",
    "address": "Piazza Bocca della Verità 18",
    "lat": 41.8881061,
    "lng": 12.4814498,
    "popularity": 1438
  },
  {
    "name": "Palazzo Nuovo",
    "address": "Piazza del Campidoglio",
    "lat": 41.893548,
    "lng": 12.4832277,
    "popularity": 1422
  },
  {
    "name": "Curia",
    "address": "Largo della Salara Vecchia",
    "lat": 41.8929836,
    "lng": 12.4854311,
    "popularity": 1352
  },
  {
    "name": "Teatro di Marcello",
    "address": "Via del Teatro di Marcello",
    "lat": 41.8919308,
    "lng": 12.4799083,
    "popularity": 1221
  },
  {
    "name": "Piazza Barberini",
    "address": "",
    "lat": 41.9037846,
    "lng": 12.4886381,
    "popularity": 1181
  },
  {
    "name": "Vatican Gardens",
    "address": "",
    "lat": 41.903634,
    "lng": 12.4502387,
    "popularity": 1166
  },
  {
    "name": "Chiesa del Gesù",
    "address": "Piazza del Gesù",
    "lat": 41.89592440000001,
    "lng": 12.4798623,
    "popularity": 1157
  },
  {
    "name": "Palazzo Venezia",
    "address": "Piazza Venezia",
    "lat": 41.8963237,
    "lng": 12.4812494,
    "popularity": 1151
  },
  {
    "name": "Tomb of St Peter",
    "address": "St Peter's Basilica",
    "lat": 41.9021667,
    "lng": 12.4539367,
    "popularity": 1117
  },
  {
    "name": "Foro di Traiano",
    "address": "Via dei Fori Imperiali",
    "lat": 41.8951795,
    "lng": 12.4853366,
    "popularity": 1084
  },
  {
    "name": "Palazzo Barberini",
    "address": "Via delle Quattro Fontane 13",
    "lat": 41.9031491,
    "lng": 12.4900479,
    "popularity": 1038
  },
  {
    "name": "Piazza del Foro",
    "address": "Largo della Salara Vecchia",
    "lat": 41.9324994,
    "lng": 12.4571159,
    "popularity": 1022
  },
  {
    "name": "Chiesa Nuova",
    "address": "Piazza della Chiesa Nuova",
    "lat": 41.8984826,
    "lng": 12.46916,
    "popularity": 1017
  },
  {
    "name": "Villa Ada",
    "address": "",
    "lat": 41.9348007,
    "lng": 12.5048014,
    "popularity": 1017
  },
  {
    "name": "Largo di Torre Argentina",
    "address": "",
    "lat": 41.8960681,
    "lng": 12.4768216,
    "popularity": 1005
  },
  {
    "name": "Piazza di Santa Maria in Trastevere",
    "address": "",
    "lat": 41.8896969,
    "lng": 12.4702193,
    "popularity": 959
  },
  {
    "name": "Villa Celimontana",
    "address": "",
    "lat": 41.8837944,
    "lng": 12.4958136,
    "popularity": 946
  },
  {
    "name": "Piazza del Quirinale",
    "address": "",
    "lat": 41.8993125,
    "lng": 12.4867333,
    "popularity": 917
  },
  {
    "name": "Portico d'Ottavia",
    "address": "Via Portica d'Ottavia 29",
    "lat": 41.8925126,
    "lng": 12.4785372,
    "popularity": 897
  },
  {
    "name": "Villa Medici",
    "address": "Viale Trinità dei Monti 1",
    "lat": 41.9083567,
    "lng": 12.4825788,
    "popularity": 883
  },
  {
    "name": "Colonna Traiana",
    "address": "Via dei Fori Imperiali",
    "lat": 41.895833,
    "lng": 12.484299,
    "popularity": 858
  },
  {
    "name": "Cinecittà",
    "address": "Via Tuscolana 1055",
    "lat": 41.8566454,
    "lng": 12.5812016,
    "popularity": 848
  },
  {
    "name": "Palazzo Senatorio",
    "address": "Piazza del Campidoglio",
    "lat": 41.8930106,
    "lng": 12.4836524,
    "popularity": 846
  },
  {
    "name": "Palazzo dei Conservatori",
    "address": "Piazza del Campidoglio",
    "lat": 41.8929428,
    "lng": 12.4825577,
    "popularity": 844
  },
  {
    "name": "UN Food & Agriculture Organisation",
    "address": "Viale delle Terme di Caracalla 1",
    "lat": 41.88298899999999,
    "lng": 12.488965,
    "popularity": 834
  },
  {
    "name": "Porta Maggiore",
    "address": "Piazza di Porta Maggiore",
    "lat": 41.8914252,
    "lng": 12.5152192,
    "popularity": 821
  },
  {
    "name": "Arco di Tito",
    "address": "Piazza di Santa Maria Nova",
    "lat": 41.8906973,
    "lng": 12.4886495,
    "popularity": 793
  },
  {
    "name": "Ponte Milvio",
    "address": "",
    "lat": 41.9355337,
    "lng": 12.4669355,
    "popularity": 769
  },
  {
    "name": "Fontana del Moro",
    "address": "Piazza Navona",
    "lat": 41.8981206,
    "lng": 12.4731517,
    "popularity": 748
  },
  {
    "name": "Villa Farnesina",
    "address": "Via della Lungara 230",
    "lat": 41.8935994,
    "lng": 12.4672868,
    "popularity": 748
  },
  {
    "name": "Arco di Settimio Severo",
    "address": "Largo della Salara Vecchia",
    "lat": 41.8928832,
    "lng": 12.4847441,
    "popularity": 730
  },
  {
    "name": "Fontana del Tritone",
    "address": "Piazza Barberini",
    "lat": 41.903669,
    "lng": 12.4884779,
    "popularity": 723
  },
  {
    "name": "Palazzo del Quirinale",
    "address": "Piazza del Quirinale",
    "lat": 41.8996484,
    "lng": 12.4870235,
    "popularity": 713
  },
  {
    "name": "Fontana della Barcaccia",
    "address": "Piazza di Spagna",
    "lat": 41.9058016,
    "lng": 12.4822454,
    "popularity": 713
  },
  {
    "name": "Via dei Condotti",
    "address": "",
    "lat": 41.90513929999999,
    "lng": 12.4805099,
    "popularity": 686
  },
  {
    "name": "Orto Botanico",
    "address": "Largo Cristina di Svezia 24",
    "lat": 41.8925862,
    "lng": 12.4649737,
    "popularity": 674
  },
  {
    "name": "Palazzo Farnese",
    "address": "Piazza Farnese",
    "lat": 41.8946756,
    "lng": 12.4706835,
    "popularity": 631
  },
  {
    "name": "Ponte Rotto",
    "address": "",
    "lat": 41.8895882,
    "lng": 12.4802852,
    "popularity": 626
  },
  {
    "name": "Villa dei Quintili",
    "address": "Via Appia Nuova 1092",
    "lat": 41.8312262,
    "lng": 12.5543866,
    "popularity": 610
  },
  {
    "name": "Piazza di Pietra",
    "address": "",
    "lat": 41.8999495,
    "lng": 12.4794474,
    "popularity": 601
  },
  {
    "name": "Palazzo Chigi",
    "address": "Piazza Colonna 370",
    "lat": 41.901221,
    "lng": 12.4798197,
    "popularity": 588
  },
  {
    "name": "Museo Nazionale delle Arti del XXI Secolo",
    "address": "Via Guido Reni 4a",
    "lat": 41.9305359,
    "lng": 12.4672645,
    "popularity": 583
  },
  {
    "name": "Area Sacra",
    "address": "Largo di Torre Argentina",
    "lat": 41.8954071,
    "lng": 12.4768597,
    "popularity": 582
  },
  {
    "name": "Tabularium",
    "address": "Piazza del Campidoglio",
    "lat": 41.892861,
    "lng": 12.483805,
    "popularity": 575
  },
  {
    "name": "Foro di Augusto",
    "address": "Via dei Fori Imperiali",
    "lat": 41.8942545,
    "lng": 12.4868933,
    "popularity": 565
  },
  {
    "name": "Cat Sanctuary",
    "address": "Largo di Torre Argentina",
    "lat": 41.8954071,
    "lng": 12.4768597,
    "popularity": 561
  },
  {
    "name": "Battistero Lateranense",
    "address": "Piazza di San Giovanni in Laterano",
    "lat": 41.8861681,
    "lng": 12.5042945,
    "popularity": 540
  },
  {
    "name": "Fontana del Nettuno",
    "address": "Piazza Navona",
    "lat": 41.8998215,
    "lng": 12.4730229,
    "popularity": 540
  },
  {
    "name": "Via dei Coronari",
    "address": "",
    "lat": 41.9004925,
    "lng": 12.4701843,
    "popularity": 531
  },
  {
    "name": "Via Margutta",
    "address": "",
    "lat": 41.9086159,
    "lng": 12.4795382,
    "popularity": 527
  },
  {
    "name": "Basilica di San Paolo Fuori le Mura",
    "address": "Via Ostiense 190",
    "lat": 41.8586767,
    "lng": 12.4767338,
    "popularity": 527
  },
  {
    "name": "Porta del Popolo",
    "address": "",
    "lat": 41.9115413,
    "lng": 12.4760243,
    "popularity": 524
  },
  {
    "name": "Casina delle Civette",
    "address": "Villa Torlonia",
    "lat": 41.9142354,
    "lng": 12.5129174,
    "popularity": 512
  },
  {
    "name": "Statue of Marcus Aurelius",
    "address": "Piazza del Campidoglio",
    "lat": 41.8933247,
    "lng": 12.4829349,
    "popularity": 511
  },
  {
    "name": "Porta Pia",
    "address": "Piazzale Porta Pia",
    "lat": 41.9111488,
    "lng": 12.5025759,
    "popularity": 499
  },
  {
    "name": "Tempio di Vesta",
    "address": "Largo della Salara Vecchia",
    "lat": 41.891715,
    "lng": 12.4862091,
    "popularity": 487
  },
  {
    "name": "Palazzo delle Esposizioni",
    "address": "Via Nazionale 194",
    "lat": 41.8994596,
    "lng": 12.4901464,
    "popularity": 485
  },
  {
    "name": "Palazzo della Civiltà Italiana",
    "address": "Quadrato della Concordia",
    "lat": 41.8366849,
    "lng": 12.4653328,
    "popularity": 483
  },
  {
    "name": "Foro di Nerva",
    "address": "Via dei Fori Imperiali",
    "lat": 41.8937418,
    "lng": 12.4873885,
    "popularity": 477
  },
  {
    "name": "Foro di Cesare",
    "address": "Via dei Fori Imperiali",
    "lat": 41.8939658,
    "lng": 12.4849561,
    "popularity": 475
  },
  {
    "name": "Tempio di Saturno",
    "address": "Largo della Salara Vecchia",
    "lat": 41.8925403,
    "lng": 12.4842589,
    "popularity": 472
  },
  {
    "name": "Museo Archeologico",
    "address": "Auditorium Parco della Musica",
    "lat": 41.9013587,
    "lng": 12.4982554,
    "popularity": 462
  },
  {
    "name": "Stadio dei Marmi",
    "address": "Foro Italico",
    "lat": 41.9344342,
    "lng": 12.4579778,
    "popularity": 462
  },
  {
    "name": "Palazzo di Giustizia",
    "address": "Piazza Cavour",
    "lat": 41.904364,
    "lng": 12.4703624,
    "popularity": 459
  },
  {
    "name": "Pasquino",
    "address": "Piazza Pasquino",
    "lat": 41.8977283,
    "lng": 12.4722975,
    "popularity": 458
  },
  {
    "name": "Palazzo dei Congressi",
    "address": "Piazza JF Kennedy 1",
    "lat": 41.8340588,
    "lng": 12.4745454,
    "popularity": 451
  },
  {
    "name": "Casino Nobile",
    "address": "Villa Torlonia",
    "lat": 41.91474849999999,
    "lng": 12.5112956,
    "popularity": 448
  },
  {
    "name": "Domus Aurea",
    "address": "Viale della Domus Aurea",
    "lat": 41.8926987,
    "lng": 12.4937992,
    "popularity": 447
  },
  {
    "name": "Piazza di Siena",
    "address": "Villa Borghese",
    "lat": 41.9135972,
    "lng": 12.4871019,
    "popularity": 441
  },
  {
    "name": "Basilica di Santa Maria degli Angeli",
    "address": "Piazza della Repubblica",
    "lat": 41.9031888,
    "lng": 12.4969341,
    "popularity": 438
  },
  {
    "name": "Palazzo Laterano",
    "address": "Piazza di San Giovanni in Laterano",
    "lat": 41.8866461,
    "lng": 12.5057447,
    "popularity": 435
  },
  {
    "name": "Chiesa della Trinità dei Monti",
    "address": "Piazza Trinità dei Monti 3",
    "lat": 41.9062729,
    "lng": 12.4836642,
    "popularity": 435
  },
  {
    "name": "Basilica Ulpia",
    "address": "Via dei Fori Imperiali",
    "lat": 41.895572,
    "lng": 12.4845844,
    "popularity": 432
  },
  {
    "name": "Basilica di Massenzio",
    "address": "Piazza di Santa Maria Nova",
    "lat": 41.8919668,
    "lng": 12.4882042,
    "popularity": 425
  },
  {
    "name": "Villa Aldobrandini",
    "address": "Via Mazzarino",
    "lat": 41.8961213,
    "lng": 12.4883562,
    "popularity": 424
  },
  {
    "name": "Tempio di Antonino e Faustina",
    "address": "Largo della Salara Vecchia",
    "lat": 41.8922512,
    "lng": 12.4868264,
    "popularity": 419
  },
  {
    "name": "Palazzo Pamphilj",
    "address": "Piazza Navona",
    "lat": 41.8981386,
    "lng": 12.4728124,
    "popularity": 416
  },
  {
    "name": "Palazzo della Cancelleria",
    "address": "Piazza della Cancelleria",
    "lat": 41.8964977,
    "lng": 12.4718662,
    "popularity": 413
  },
  {
    "name": "Jewish Ghetto",
    "address": "",
    "lat": 41.89196070000001,
    "lng": 12.4779185,
    "popularity": 411
  },
  {
    "name": "Basilica di Santa Maria in Trastevere",
    "address": "Piazza Santa Maria in Trastevere",
    "lat": 41.8894657,
    "lng": 12.4696635,
    "popularity": 401
  },
  {
    "name": "Fontana delle Naiadi",
    "address": "",
    "lat": 41.9027384,
    "lng": 12.4962411,
    "popularity": 397
  },
  {
    "name": "Museo Palatino",
    "address": "Via di San Gregorio 30",
    "lat": 41.8882973,
    "lng": 12.4865643,
    "popularity": 397
  },
  {
    "name": "Museo Nazionale d’Arte Orientale",
    "address": "Via Merulana 248",
    "lat": 41.8944442,
    "lng": 12.5002444,
    "popularity": 390
  },
  {
    "name": "Roma dal Cielo",
    "address": "Vittoriano",
    "lat": 41.8944135,
    "lng": 12.4835994,
    "popularity": 382
  },
  {
    "name": "MACRO Testaccio",
    "address": "Piazza Orazio Giustiniani 4",
    "lat": 41.87645,
    "lng": 12.4732736,
    "popularity": 378
  },
  {
    "name": "Torre delle Milizie",
    "address": "",
    "lat": 41.8959577,
    "lng": 12.4866906,
    "popularity": 375
  },
  {
    "name": "Galleria Colonna",
    "address": "Via della Pilotta 17",
    "lat": 41.8978721,
    "lng": 12.4839276,
    "popularity": 369
  },
  {
    "name": "Colonna di Marco Aurelio",
    "address": "Piazza Colonna",
    "lat": 41.9008536,
    "lng": 12.479986,
    "popularity": 367
  },
  {
    "name": "Gianicolo Hill",
    "address": "",
    "lat": 41.8916196,
    "lng": 12.4610393,
    "popularity": 361
  },
  {
    "name": "Palazzo Madama",
    "address": "Piazza Madama 11",
    "lat": 41.8992385,
    "lng": 12.4741376,
    "popularity": 360
  },
  {
    "name": "Foro di Vespasiano",
    "address": "Via dei Fori Imperiali",
    "lat": 41.8951795,
    "lng": 12.4853366,
    "popularity": 359
  },
  {
    "name": "Fontana delle Tartarughe",
    "address": "Piazza Mattei",
    "lat": 41.89383429999999,
    "lng": 12.4775765,
    "popularity": 354
  },
  {
    "name": "Basilica di San Marco",
    "address": "Piazza di San Marco 48",
    "lat": 41.8960809,
    "lng": 12.4815875,
    "popularity": 353
  },
  {
    "name": "Cordonata",
    "address": "Piazza d'Aracoeli",
    "lat": 41.89354609999999,
    "lng": 12.4824865,
    "popularity": 351
  },
  {
    "name": "Chiesa Santi Pietro e Paolo",
    "address": "Piazzale Santi Pietro e Paolo",
    "lat": 41.8337171,
    "lng": 12.4593156,
    "popularity": 343
  },
  {
    "name": "Palazzo di Montecitorio",
    "address": "Piazza di Montecitorio",
    "lat": 41.9015668,
    "lng": 12.4787435,
    "popularity": 341
  },
  {
    "name": "Museo Nazionale Etrusco di Villa Giulia",
    "address": "Piazzale di Villa Giulia",
    "lat": 41.9182717,
    "lng": 12.477809,
    "popularity": 339
  },
  {
    "name": "Domus Augustana",
    "address": "Via di San Gregorio 30",
    "lat": 41.887934,
    "lng": 12.486858,
    "popularity": 337
  },
  {
    "name": "Fontana dell’Acqua Paola",
    "address": "Via Garibaldi",
    "lat": 41.8887595,
    "lng": 12.4641234,
    "popularity": 330
  },
  {
    "name": "Museo di Roma in Trastevere",
    "address": "Piazza Sant’Egidio 1b",
    "lat": 41.8898917,
    "lng": 12.4689762,
    "popularity": 330
  },
  {
    "name": "Piramide di Caio Cestio",
    "address": "",
    "lat": 41.876489,
    "lng": 12.4808979,
    "popularity": 326
  },
  {
    "name": "Forum Boarium",
    "address": "Piazza Bocca della Verità",
    "lat": 41.8887066,
    "lng": 12.4809248,
    "popularity": 325
  },
  {
    "name": "Galleria d'Arte Moderna",
    "address": "Via F Crispi 24",
    "lat": 41.917042,
    "lng": 12.482169,
    "popularity": 324
  },
  {
    "name": "Casa di Augusto",
    "address": "Via di San Gregorio 30",
    "lat": 41.8887767,
    "lng": 12.485169,
    "popularity": 322
  },
  {
    "name": "Museo dell'Ara Pacis",
    "address": "Lungotevere in Auga",
    "lat": 41.9061281,
    "lng": 12.4754579,
    "popularity": 314
  },
  {
    "name": "Mausoleo di Augusto",
    "address": "Piazza Augo Imperatore",
    "lat": 41.9060311,
    "lng": 12.4764264,
    "popularity": 312
  },
  {
    "name": "Convento dei Cappuccini",
    "address": "Via Vittorio Veneto 27",
    "lat": 41.9049618,
    "lng": 12.4885354,
    "popularity": 312
  },
  {
    "name": "Chiesa di Santo Stefano Rotondo",
    "address": "Via di Santo Stefano Rotondo 7",
    "lat": 41.8845602,
    "lng": 12.4967525,
    "popularity": 307
  },
  {
    "name": "Galleria Doria Pamphilj",
    "address": "Via del Corso 305",
    "lat": 41.8979852,
    "lng": 12.481562,
    "popularity": 300
  },
  {
    "name": "Chiesa di Sant’Ignazio di Loyola",
    "address": "Piazza di Sant’Ignazio",
    "lat": 41.8987532,
    "lng": 12.4798693,
    "popularity": 296
  },
  {
    "name": "Tempio di Adriano",
    "address": "Piazza di Pietra",
    "lat": 41.8998894,
    "lng": 12.4793957,
    "popularity": 289
  },
  {
    "name": "Monte Testaccio",
    "address": "Via Nicolo Zabaglia 24",
    "lat": 41.87595200000001,
    "lng": 12.475694,
    "popularity": 284
  },
  {
    "name": "Cimitero di Campo Verano",
    "address": "Piazzale del Verano 1",
    "lat": 41.9029695,
    "lng": 12.5258799,
    "popularity": 283
  },
  {
    "name": "Arco di Giano",
    "address": "Via del Velabro",
    "lat": 41.8893491,
    "lng": 12.4827341,
    "popularity": 282
  },
  {
    "name": "Basilica di San Clemente",
    "address": "Piazza San Clemente",
    "lat": 41.8893347,
    "lng": 12.4975757,
    "popularity": 273
  },
  {
    "name": "Palazzo Spada",
    "address": "Piazza Capo di Ferro 13",
    "lat": 41.89420339999999,
    "lng": 12.4719221,
    "popularity": 273
  },
  {
    "name": "Villa Doria Pamphilj",
    "address": "",
    "lat": 41.8873097,
    "lng": 12.4586624,
    "popularity": 270
  },
  {
    "name": "Terme di Settimio Severo",
    "address": "Via di San Gregorio 30",
    "lat": 41.8928832,
    "lng": 12.4847441,
    "popularity": 270
  },
  {
    "name": "Tempio di Romolo",
    "address": "Largo della Salara Vecchia",
    "lat": 41.8918773,
    "lng": 12.4871716,
    "popularity": 269
  },
  {
    "name": "Tempio di Vespasiano",
    "address": "Largo della Salara Vecchia",
    "lat": 41.8927538,
    "lng": 12.4840763,
    "popularity": 267
  },
  {
    "name": "Chiesa di Sant'Agnese in Agone",
    "address": "Piazza Navona",
    "lat": 41.8988438,
    "lng": 12.4725517,
    "popularity": 258
  },
  {
    "name": "Basilica dei SS Quattro Coronati",
    "address": "Via dei Santi Quattro 20",
    "lat": 41.8883364,
    "lng": 12.498335,
    "popularity": 252
  },
  {
    "name": "Via Vittorio Veneto",
    "address": "",
    "lat": 41.9061177,
    "lng": 12.4895417,
    "popularity": 247
  },
  {
    "name": "Roman Forum Entrance",
    "address": "Largo della Salara Vecchia",
    "lat": 41.8924623,
    "lng": 12.485325,
    "popularity": 244
  },
  {
    "name": "Circo di Massenzio",
    "address": "Via Appia Antica 153",
    "lat": 41.8544138,
    "lng": 12.519267,
    "popularity": 241
  },
  {
    "name": "Fontana delle Api",
    "address": "Piazza Barberini",
    "lat": 41.9043118,
    "lng": 12.4887695,
    "popularity": 241
  },
  {
    "name": "Basilica di Santa Maria Sopra Minerva",
    "address": "Piazza della Minerva 42",
    "lat": 41.8979888,
    "lng": 12.4780226,
    "popularity": 238
  },
  {
    "name": "Colonna di Foca",
    "address": "Largo della Salara Vecchia",
    "lat": 41.89246259999999,
    "lng": 12.4848656,
    "popularity": 238
  },
  {
    "name": "Basilica dei Santi Apostoli",
    "address": "Piazza dei Santissimi Apostoli",
    "lat": 41.89808439999999,
    "lng": 12.4833588,
    "popularity": 238
  },
  {
    "name": "Chiesa di San Luigi dei Francesi",
    "address": "Piazza di San Luigi dei Francesi 5",
    "lat": 41.899581,
    "lng": 12.4745405,
    "popularity": 237
  },
  {
    "name": "Garibaldi Monument",
    "address": "Piazzale Giuseppe Garibaldi",
    "lat": 41.88818939999999,
    "lng": 12.4656255,
    "popularity": 235
  },
  {
    "name": "Domus Severiana",
    "address": "Via di San Gregorio 30",
    "lat": 41.8866993,
    "lng": 12.4872161,
    "popularity": 234
  },
  {
    "name": "Carcere Mamertino",
    "address": "Clivo Argentario 1",
    "lat": 41.8932529,
    "lng": 12.484504,
    "popularity": 234
  },
  {
    "name": "Via del Governo Vecchio",
    "address": "",
    "lat": 41.8984787,
    "lng": 12.4701165,
    "popularity": 231
  },
  {
    "name": "Palazzetto dello Sport",
    "address": "Piazza Apollodoro 10",
    "lat": 41.9296069,
    "lng": 12.4706867,
    "popularity": 229
  },
  {
    "name": "Tempio di Ercole Vincitore",
    "address": "Piazza Bocca della Verità",
    "lat": 41.888709,
    "lng": 12.4807407,
    "popularity": 228
  },
  {
    "name": "Mausoleo di Cecilia Metella",
    "address": "Via Appia Antica 161",
    "lat": 41.8521596,
    "lng": 12.5209707,
    "popularity": 228
  },
  {
    "name": "Chiesa Dio Padre Misericordioso",
    "address": "Piazza Largo Terzo Millennio 8",
    "lat": 41.8823692,
    "lng": 12.5854768,
    "popularity": 226
  },
  {
    "name": "Domus Flavia",
    "address": "Via di San Gregorio 30",
    "lat": 41.888756,
    "lng": 12.486509,
    "popularity": 224
  },
  {
    "name": "Stadio di Domiziano",
    "address": "Via di Tor Sanguigna 3",
    "lat": 41.900127,
    "lng": 12.472567,
    "popularity": 222
  },
  {
    "name": "Case Romane",
    "address": "Clivo di Scauro",
    "lat": 41.88634760000001,
    "lng": 12.4920073,
    "popularity": 217
  },
  {
    "name": "Orti Farnesiani",
    "address": "Via di San Gregorio 30",
    "lat": 41.8903519,
    "lng": 12.4868698,
    "popularity": 212
  },
  {
    "name": "EUR District",
    "address": "",
    "lat": 41.8266105,
    "lng": 12.4667204,
    "popularity": 209
  },
  {
    "name": "Basilica di Santa Sabina",
    "address": "Piazza Pietro d’Illiria 1",
    "lat": 41.8845076,
    "lng": 12.4797654,
    "popularity": 208
  },
  {
    "name": "Museo delle Mura",
    "address": "Via di Porta San Sebastiano 18",
    "lat": 41.8734336,
    "lng": 12.5013799,
    "popularity": 208
  },
  {
    "name": "Alexis",
    "address": "Via Ostiense 122",
    "lat": 41.9046187,
    "lng": 12.5004705,
    "popularity": 205
  },
  {
    "name": "Basilica Giulia",
    "address": "Largo della Salara Vecchia",
    "lat": 41.8919966,
    "lng": 12.4847898,
    "popularity": 200
  },
  {
    "name": "Chiesa di San Bartolomeo",
    "address": "Piazza di San Bartolomeo all'Isola 22",
    "lat": 41.8903329,
    "lng": 12.4782114,
    "popularity": 199
  },
  {
    "name": "Basilica di Sant’Agostino",
    "address": "Piazza di Sant’Agostino 80",
    "lat": 41.8985706,
    "lng": 12.4757317,
    "popularity": 198
  },
  {
    "name": "Città dell’Acqua",
    "address": "Vicolo del Puttarello 25",
    "lat": 41.90047879999999,
    "lng": 12.4840656,
    "popularity": 197
  },
  {
    "name": "Galleria Sciarra",
    "address": "Via Marco Minghetti 9-10",
    "lat": 41.8994864,
    "lng": 12.4823282,
    "popularity": 196
  },
  {
    "name": "Chiesa di Santa Maria della Vittoria",
    "address": "Via XX Settembre 17",
    "lat": 41.9047008,
    "lng": 12.4943693,
    "popularity": 196
  },
  {
    "name": "Quartiere Garbatella",
    "address": "",
    "lat": 41.867191,
    "lng": 12.493635,
    "popularity": 194
  },
  {
    "name": "Vatican Grottoes",
    "address": "St Peter's Basilica",
    "lat": 41.9021667,
    "lng": 12.4539367,
    "popularity": 193
  },
  {
    "name": "Basilica di San Pietro in Vincoli",
    "address": "Piazza di San Pietro in Vincoli 4a",
    "lat": 41.8938554,
    "lng": 12.4930662,
    "popularity": 190
  },
  {
    "name": "Palazzo Cenci",
    "address": "Vicolo dei Cenci",
    "lat": 41.8930997,
    "lng": 12.4757547,
    "popularity": 186
  },
  {
    "name": "Piazza di Sant’Ignazio Loyola",
    "address": "",
    "lat": 41.8987532,
    "lng": 12.4798693,
    "popularity": 185
  },
  {
    "name": "Chiesa di Santa Maria in Aracoeli",
    "address": "Scala dell'Arce Capitolina",
    "lat": 41.8939988,
    "lng": 12.4832329,
    "popularity": 184
  },
  {
    "name": "Fontana delle Rane",
    "address": "Piazza Mincio",
    "lat": 41.9187247,
    "lng": 12.502394,
    "popularity": 183
  },
  {
    "name": "Basilica di Santa Prassede",
    "address": "Via Santa Prassede 9a",
    "lat": 41.8964085,
    "lng": 12.4988253,
    "popularity": 181
  },
  {
    "name": "Chiesa di Santa Maria della Pace & Chiostro del Bramante",
    "address": "Via Arco della Pace 5",
    "lat": 41.8998654,
    "lng": 12.4716738,
    "popularity": 181
  },
  {
    "name": "Complesso del Vittoriano",
    "address": "Via di San Pietro in Carcere",
    "lat": 41.8945976,
    "lng": 12.4831269,
    "popularity": 180
  },
  {
    "name": "Basilica di Santa Maria del Popolo",
    "address": "Piazza del Popolo 12",
    "lat": 41.911491,
    "lng": 12.4766557,
    "popularity": 180
  },
  {
    "name": "Capo di Bove",
    "address": "Via Appia Antica 222",
    "lat": 41.8484657,
    "lng": 12.5240692,
    "popularity": 179
  },
  {
    "name": "Parco Savello",
    "address": "Via di Santa Sabina",
    "lat": 41.88518089999999,
    "lng": 12.4805167,
    "popularity": 178
  },
  {
    "name": "Porta Settimiana",
    "address": "",
    "lat": 41.8922257,
    "lng": 12.4676035,
    "popularity": 175
  },
  {
    "name": "Chiesa di Santa Croce in Gerusalemme",
    "address": "Piazza di Santa Croce in Gerusalemme 12",
    "lat": 41.8882366,
    "lng": 12.5158441,
    "popularity": 169
  },
  {
    "name": "Necropoli Via Triumphalis",
    "address": "",
    "lat": 41.9017028,
    "lng": 12.4540728,
    "popularity": 167
  },
  {
    "name": "Chiesa di Sant’Ivo alla Sapienza",
    "address": "Corso del Rinascimento 40",
    "lat": 41.8982097,
    "lng": 12.4748135,
    "popularity": 164
  },
  {
    "name": "Mercati di Traiano Museo dei Fori Imperiali",
    "address": "Via IV Novembre 94",
    "lat": 41.8961564,
    "lng": 12.4857707,
    "popularity": 163
  },
  {
    "name": "Casa delle Vestali",
    "address": "Largo della Salara Vecchia",
    "lat": 41.89140829999999,
    "lng": 12.4866391,
    "popularity": 163
  },
  {
    "name": "Villa di Massenzio",
    "address": "Via Appia Antica 153",
    "lat": 41.8561528,
    "lng": 12.5195526,
    "popularity": 162
  },
  {
    "name": "Mausoleo di Romolo",
    "address": "Via Appia Antica 153",
    "lat": 41.8551903,
    "lng": 12.5185293,
    "popularity": 159
  },
  {
    "name": "Tempio di Portuno",
    "address": "Piazza Bocca della Verità",
    "lat": 41.8892434,
    "lng": 12.4809155,
    "popularity": 156
  },
  {
    "name": "Casa di Livia",
    "address": "Via di San Gregorio 30",
    "lat": 41.8893127,
    "lng": 12.4856683,
    "popularity": 155
  },
  {
    "name": "Arco degli Acetari",
    "address": "Via del Pellegrino 19",
    "lat": 41.8963323,
    "lng": 12.4713916,
    "popularity": 153
  },
  {
    "name": "Fontana del Mascherone",
    "address": "",
    "lat": 41.8938904,
    "lng": 12.4702247,
    "popularity": 153
  },
  {
    "name": "Chiesa di San Carlino alle Quattro Fontane",
    "address": "Via del Quirinale 23",
    "lat": 41.901732,
    "lng": 12.490575,
    "popularity": 152
  },
  {
    "name": "Galleria Corsini",
    "address": "Via della Lungara 10",
    "lat": 41.8932221,
    "lng": 12.4668405,
    "popularity": 151
  },
  {
    "name": "Albergo Rosso",
    "address": "Piazza Michele da Carbonara",
    "lat": 41.9099435,
    "lng": 12.4774581,
    "popularity": 150
  },
  {
    "name": "Tempio di Castore e Polluce",
    "address": "Largo della Salara Vecchia",
    "lat": 41.8917031,
    "lng": 12.4856645,
    "popularity": 149
  },
  {
    "name": "Keats-Shelley House",
    "address": "Piazza di Spagna 26",
    "lat": 41.9057538,
    "lng": 12.4825272,
    "popularity": 148
  },
  {
    "name": "Villa del Priorato di Malta",
    "address": "Piazza dei Cavalieri di Malta",
    "lat": 41.8832694,
    "lng": 12.4773443,
    "popularity": 146
  },
  {
    "name": "Villa Poniatowski",
    "address": "Piazzale di Villa Giulia",
    "lat": 41.91814840000001,
    "lng": 12.4756002,
    "popularity": 145
  },
  {
    "name": "Museo e Galleria Borghese",
    "address": "Piazzale del Museo Borghese 5",
    "lat": 41.9142103,
    "lng": 12.4921442,
    "popularity": 145
  },
  {
    "name": "Basilica di San Lorenzo Fuori le Mura",
    "address": "Piazzale San Lorenzo",
    "lat": 41.9001504,
    "lng": 12.5176892,
    "popularity": 145
  },
  {
    "name": "Lapis Niger",
    "address": "Largo della Salara Vecchia",
    "lat": 41.892701,
    "lng": 12.4851153,
    "popularity": 144
  },
  {
    "name": "Piè di Marmo",
    "address": "Via di Santo Stefano del Cacco",
    "lat": 41.8976046,
    "lng": 12.4791875,
    "popularity": 141
  },
  {
    "name": "Mausoleo delle Fosse Ardeatine",
    "address": "Via Ardeatina 174",
    "lat": 41.8567546,
    "lng": 12.5104076,
    "popularity": 139
  },
  {
    "name": "Palazzo Odescalchi",
    "address": "Piazza Santi Apostoli 80",
    "lat": 41.8980008,
    "lng": 12.4827299,
    "popularity": 136
  },
  {
    "name": "Tempio di Giulio Cesare",
    "address": "Largo della Salara Vecchia",
    "lat": 41.8920725,
    "lng": 12.4860155,
    "popularity": 135
  },
  {
    "name": "Roman Insula",
    "address": "Piazza d'Aracoeli",
    "lat": 41.8940687,
    "lng": 12.4822551,
    "popularity": 135
  },
  {
    "name": "Museo Centrale del Risorgimento",
    "address": "Vittoriano",
    "lat": 41.8945189,
    "lng": 12.482856,
    "popularity": 133
  },
  {
    "name": "Arco Farnese",
    "address": "Via Giulia",
    "lat": 41.8943699,
    "lng": 12.4698606,
    "popularity": 132
  },
  {
    "name": "La Galleria Nazionale",
    "address": "Viale delle Belle Arti 131",
    "lat": 41.917042,
    "lng": 12.482169,
    "popularity": 132
  },
  {
    "name": "Museo Carlo Bilotti",
    "address": "Viale Fiorello La Guardia",
    "lat": 41.9133994,
    "lng": 12.4832181,
    "popularity": 132
  },
  {
    "name": "Basilica di San Sebastiano",
    "address": "Via Appia Antica 136",
    "lat": 41.8557038,
    "lng": 12.5156057,
    "popularity": 130
  },
  {
    "name": "Villa Torlonia Bunker",
    "address": "Villa Torlonia",
    "lat": 41.9133345,
    "lng": 12.511711,
    "popularity": 130
  },
  {
    "name": "Musei di Villa Torlonia",
    "address": "Via Nomentana 70",
    "lat": 41.9133345,
    "lng": 12.511711,
    "popularity": 130
  },
  {
    "name": "Catacombe di San Callisto",
    "address": "Via Appia Antica 110-126",
    "lat": 41.8608245,
    "lng": 12.5087505,
    "popularity": 130
  },
  {
    "name": "Chiesa di Santa Maria dei Miracoli",
    "address": "Via del Corso 528",
    "lat": 41.9098347,
    "lng": 12.4764812,
    "popularity": 128
  },
  {
    "name": "Tempio della Concordia",
    "address": "Largo della Salara Vecchia",
    "lat": 41.8930044,
    "lng": 12.4840556,
    "popularity": 128
  },
  {
    "name": "Pincio Hill Gardens",
    "address": "",
    "lat": 41.9113578,
    "lng": 12.4795928,
    "popularity": 126
  },
  {
    "name": "Trofei di Mario",
    "address": "Piazza Vittorio Emanuele II",
    "lat": 41.8953485,
    "lng": 12.5036726,
    "popularity": 126
  },
  {
    "name": "Palatino Entrance",
    "address": "Via di San Gregorio 30",
    "lat": 41.8894036,
    "lng": 12.4874662,
    "popularity": 126
  },
  {
    "name": "Basilica di Santa Cecilia in Trastevere",
    "address": "Piazza di Santa Cecilia",
    "lat": 41.887594,
    "lng": 12.4757957,
    "popularity": 125
  },
  {
    "name": "Catacombe di San Sebastiano",
    "address": "Via Appia Antica 136",
    "lat": 41.855779,
    "lng": 12.5158503,
    "popularity": 124
  },
  {
    "name": "Chiesa di San Giorgio in Velabro",
    "address": "Via del Velabro 19",
    "lat": 41.8895687,
    "lng": 12.4831984,
    "popularity": 124
  },
  {
    "name": "Museo Storico Artistico",
    "address": "St Peter's Basilica",
    "lat": 41.8956842,
    "lng": 12.4813307,
    "popularity": 123
  },
  {
    "name": "Basilica di Santa Maria in Montesanto",
    "address": "Via del Babuino 198",
    "lat": 41.9098953,
    "lng": 12.4769953,
    "popularity": 123
  },
  {
    "name": "Chiesa di Sant’Andrea della Valle",
    "address": "Piazza Vidoni 6",
    "lat": 41.8962192,
    "lng": 12.4743482,
    "popularity": 120
  },
  {
    "name": "Rampa imperiale",
    "address": "Largo della Salara Vecchia",
    "lat": 41.8926605,
    "lng": 12.4870362,
    "popularity": 120
  },
  {
    "name": "Chiesa di San Lorenzo in Miranda",
    "address": "Largo della Salara Vecchia",
    "lat": 41.8922512,
    "lng": 12.4868264,
    "popularity": 120
  },
  {
    "name": "Chiesa di San Martino ai Monti",
    "address": "Viale del Monte Oppio 28",
    "lat": 41.8946384,
    "lng": 12.4982488,
    "popularity": 120
  },
  {
    "name": "Chiesa di Santa Maria Antiqua",
    "address": "Largo della Salara Vecchia",
    "lat": 41.8913504,
    "lng": 12.4858828,
    "popularity": 120
  },
  {
    "name": "Museo d’Arte Contemporanea di Roma",
    "address": "Via Nizza 138",
    "lat": 41.9128478,
    "lng": 12.5026158,
    "popularity": 119
  },
  {
    "name": "Museo Nazionale del Palazzo Venezia",
    "address": "Via del Plebiscito 118",
    "lat": 41.8963237,
    "lng": 12.4812494,
    "popularity": 119
  },
  {
    "name": "Museo delle Cere",
    "address": "Piazza dei Santissimi Apostoli 67",
    "lat": 41.8970607,
    "lng": 12.4836031,
    "popularity": 119
  },
  {
    "name": "Roman Forum & Palatino Entrance",
    "address": "Piazza di Santa Maria Nova",
    "lat": 41.8894036,
    "lng": 12.4874662,
    "popularity": 118
  },
  {
    "name": "Museo degli Strumenti",
    "address": "Auditorium Parco della Musica",
    "lat": 41.8884625,
    "lng": 12.5164466,
    "popularity": 116
  },
  {
    "name": "Cimitero Acattolico per gli Stranieri",
    "address": "Via Caio Cestio 5",
    "lat": 41.87630679999999,
    "lng": 12.4795065,
    "popularity": 115
  },
  {
    "name": "Casino dei Principi",
    "address": "Villa Torlonia",
    "lat": 41.9149512,
    "lng": 12.5102235,
    "popularity": 114
  },
  {
    "name": "Scuderie al Quirinale",
    "address": "Via XXIV Maggio 16",
    "lat": 41.8987245,
    "lng": 12.4864287,
    "popularity": 114
  },
  {
    "name": "Chiesa di San Lorenzo in Lucina",
    "address": "Piazza San Lorenzo in Lucina 16",
    "lat": 41.9032969,
    "lng": 12.4786801,
    "popularity": 113
  },
  {
    "name": "Museo Barracco di Scultura Antica",
    "address": "Corso Vittorio Emanuele II 166",
    "lat": 41.8967652,
    "lng": 12.4726105,
    "popularity": 113
  },
  {
    "name": "Basilica dei SS Cosma e Damiano",
    "address": "Via dei Fori Imperiali 1",
    "lat": 41.8922307,
    "lng": 12.4874569,
    "popularity": 113
  },
  {
    "name": "Portico degli Dei Consenti",
    "address": "Largo delle Salara Vecchia",
    "lat": 41.8925192,
    "lng": 12.4837035,
    "popularity": 112
  },
  {
    "name": "Chiesa di Sant’Andrea al Quirinale",
    "address": "Via del Quirinale 29",
    "lat": 41.9007365,
    "lng": 12.4893747,
    "popularity": 112
  },
  {
    "name": "Chiesa di San Gregorio al Celio",
    "address": "Piazza di San Gregorio 1",
    "lat": 41.8857766,
    "lng": 12.4904859,
    "popularity": 112
  },
  {
    "name": "Basilica di San Nicola in Carcere",
    "address": "Via del Teatro di Marcello 46",
    "lat": 41.8911329,
    "lng": 12.4800224,
    "popularity": 111
  },
  {
    "name": "Basilica Fulvia Aemilia",
    "address": "Largo della Salara Vecchia",
    "lat": 41.8925821,
    "lng": 12.4861014,
    "popularity": 110
  },
  {
    "name": "Gagosian Gallery",
    "address": "Via Francesco Crispi 16",
    "lat": 41.90335510000001,
    "lng": 12.4859595,
    "popularity": 110
  },
  {
    "name": "Chiesa del Domine Quo Vadis",
    "address": "Via Appia Antica 51",
    "lat": 41.8664692,
    "lng": 12.503729,
    "popularity": 110
  },
  {
    "name": "Museo Criminologico",
    "address": "Via del Gonfalone 29",
    "lat": 41.8976285,
    "lng": 12.4667171,
    "popularity": 109
  },
  {
    "name": "Triclinium Leoninum",
    "address": "",
    "lat": 41.886953,
    "lng": 12.5072772,
    "popularity": 109
  },
  {
    "name": "Rostri",
    "address": "Largo della Salara Vecchia",
    "lat": 41.8926667,
    "lng": 12.4845943,
    "popularity": 108
  },
  {
    "name": "Aula Ottagona",
    "address": "Via Giuseppe Romita 8",
    "lat": 41.9037353,
    "lng": 12.4958558,
    "popularity": 108
  },
  {
    "name": "Casa di Goethe",
    "address": "Via del Corso 18",
    "lat": 41.909019,
    "lng": 12.477264,
    "popularity": 108
  },
  {
    "name": "Criptoportico Neroniano",
    "address": "",
    "lat": 41.8896191,
    "lng": 12.4863441,
    "popularity": 108
  },
  {
    "name": "Basilica dei SS Giovanni e Paolo al Celio",
    "address": "Piazza dei Santi Giovanni e Paolo",
    "lat": 41.88647479999999,
    "lng": 12.492111,
    "popularity": 107
  },
  {
    "name": "Chiesa di San Paolo entro le Mura",
    "address": "Via Napoli 58",
    "lat": 41.9010633,
    "lng": 12.494266,
    "popularity": 107
  },
  {
    "name": "Caserma dell’Aeronautica",
    "address": "Via del Porto Fluviale",
    "lat": 41.8527721,
    "lng": 12.5277273,
    "popularity": 106
  },
  {
    "name": "Via Appia Antica",
    "address": "",
    "lat": 41.6777002,
    "lng": 12.7283036,
    "popularity": 106
  },
  {
    "name": "Catacombe di Priscilla",
    "address": "Via Salaria 430",
    "lat": 41.9296221,
    "lng": 12.5085324,
    "popularity": 106
  },
  {
    "name": "M.U.Ro",
    "address": "Via dei Lentuli",
    "lat": 41.8646442,
    "lng": 12.5467622,
    "popularity": 106
  },
  {
    "name": "Chiesa di Sant’Eusebio",
    "address": "Piazza Vittorio Emanuele II 11a",
    "lat": 41.8963997,
    "lng": 12.5038577,
    "popularity": 106
  },
  {
    "name": "Museo Ebraico di Roma",
    "address": "Via Catalana",
    "lat": 41.89196070000001,
    "lng": 12.4779185,
    "popularity": 105
  },
  {
    "name": "Scuola Cesare Battisti",
    "address": "Piazza Damiano Sauli",
    "lat": 41.8208091,
    "lng": 12.4873013,
    "popularity": 105
  },
  {
    "name": "Chiesa di Santa Pudenziana",
    "address": "Via Urbana 160",
    "lat": 41.89842429999999,
    "lng": 12.495629,
    "popularity": 105
  },
  {
    "name": "Basilica di San Giovanni Battista dei Fiorentini",
    "address": "Piazza dell'Oro 2",
    "lat": 41.8994005,
    "lng": 12.4645837,
    "popularity": 104
  },
  {
    "name": "Capanne Romulee",
    "address": "Via di San Gregorio 30",
    "lat": 41.8892388,
    "lng": 12.4849516,
    "popularity": 104
  },
  {
    "name": "Tempietto di Bramante & Chiesa di San Pietro in Montorio",
    "address": "Piazza San Pietro in Montorio 2",
    "lat": 41.8886937,
    "lng": 12.4663759,
    "popularity": 104
  },
  {
    "name": "Museo Nazionale degli Strumenti",
    "address": "Piazza di Santa Croce in Gerusalemm",
    "lat": 41.8884625,
    "lng": 12.5164466,
    "popularity": 104
  },
  {
    "name": "Arcate Severiane",
    "address": "Via di San Gregorio 30",
    "lat": 41.8864542,
    "lng": 12.4878126,
    "popularity": 104
  },
  {
    "name": "Quartiere Coppedè",
    "address": "",
    "lat": 41.86748010000001,
    "lng": 12.4112017,
    "popularity": 103
  },
  {
    "name": "Museo Storico della Liberazione",
    "address": "Via Tasso 145",
    "lat": 41.8886536,
    "lng": 12.5063893,
    "popularity": 103
  },
  {
    "name": "Le Domus Romane di Palazzo Valentini",
    "address": "Via Foro Traiano 85",
    "lat": 41.8960502,
    "lng": 12.484071,
    "popularity": 103
  },
  {
    "name": "Basilica di San Lorenzo in Damaso",
    "address": "Piazza della Cancelleria",
    "lat": 41.8969454,
    "lng": 12.4719482,
    "popularity": 103
  },
  {
    "name": "Miliarium Aureum",
    "address": "Largo della Salara Vecchia",
    "lat": 41.8925997,
    "lng": 12.4843819,
    "popularity": 102
  },
  {
    "name": "Chiesa di Santa Lucia in Selci",
    "address": "Via in Selci 82",
    "lat": 41.89464,
    "lng": 12.49625,
    "popularity": 102
  },
  {
    "name": "Chiesa di San Francesco d’Assisi a Ripa Grande",
    "address": "Piazza di San Francesco d’Assisi 88",
    "lat": 41.885166,
    "lng": 12.4731468,
    "popularity": 101
  },
  {
    "name": "Rome Convention Centre La Nuvola",
    "address": "Viale Asia",
    "lat": 41.83087769999999,
    "lng": 12.4720789,
    "popularity": 101
  },
  {
    "name": "Elefantino",
    "address": "Piazza della Minerva",
    "lat": 41.8623431,
    "lng": 12.6408637,
    "popularity": 101
  },
  {
    "name": "Chiesa di Sant’Eligio degli Orefici",
    "address": "Via di Sant'Eligio 8a",
    "lat": 41.8956847,
    "lng": 12.4680193,
    "popularity": 101
  },
  {
    "name": "Santuario della Scala Santa & Sancta Sanctorum",
    "address": "Piazza di San Giovanni in Laterano 14",
    "lat": 41.8871522,
    "lng": 12.5070388,
    "popularity": 101
  },
  {
    "name": "Fondazione Pastificio Cerere",
    "address": "Via degli Ausoni 7",
    "lat": 41.8991094,
    "lng": 12.5165874,
    "popularity": 101
  },
  {
    "name": "Museo Nazionale Romano: Palazzo Altemps",
    "address": "Piazza Sant'Apollinare 44",
    "lat": 41.9013587,
    "lng": 12.4982554,
    "popularity": 100
  },
  {
    "name": "Museo Nazionale Romano: Terme di Diocleziano",
    "address": "Viale Enrico de Nicola 78",
    "lat": 41.9042819,
    "lng": 12.4983756,
    "popularity": 100
  },
  {
    "name": "Complesso Monumentale Santo Spirito in Sassia",
    "address": "Borgo Santo Spirito 1",
    "lat": 41.9015901,
    "lng": 12.4633784,
    "popularity": 100
  },
  {
    "name": "Chiesa di Santissimi Vincenzo e Anastasio",
    "address": "Vicolo dei Modelli 73",
    "lat": 41.900679,
    "lng": 12.4838993,
    "popularity": 100
  },
  {
    "name": "Museo Nazionale Romano: Palazzo Massimo alle Terme",
    "address": "Largo di Villa Peretti 1",
    "lat": 41.9013587,
    "lng": 12.4982554,
    "popularity": 100
  },
  {
    "name": "Museo Nazionale Romano: Crypta Balbi",
    "address": "Via delle Botteghe Oscure 31",
    "lat": 41.8948109,
    "lng": 12.478809,
    "popularity": 100
  },
  {
    "name": "Explora – Museo dei Bambini di Roma",
    "address": "Via Flaminia 80-86",
    "lat": 41.9150054,
    "lng": 12.4748203,
    "popularity": 100
  },
  {
    "name": "Museo della Repubblica Romana e della Memoria Garibaldina",
    "address": "Largo di Porta San Pancrazio",
    "lat": 41.8884497,
    "lng": 12.4614977,
    "popularity": 100
  },
  {
    "name": "Torre dell'Orologio",
    "address": "Piazza dell'Orologio",
    "lat": 41.9656993,
    "lng": 12.7991817,
    "popularity": 100
  },
  {
    "name": "Giardino del Lago",
    "address": "Villa Borghese",
    "lat": 42.1025845,
    "lng": 12.2788321,
    "popularity": 100
  },
  {
    "name": "Catacombe di Santa Domitilla",
    "address": "Via delle Sette Chiese 282",
    "lat": 41.8589185,
    "lng": 12.5052027,
    "popularity": 100
  },
  {
    "name": "Museo Capitoline Centrale Montemartini",
    "address": "Via Ostiense 106",
    "lat": 41.8669022,
    "lng": 12.4781129,
    "popularity": 100
  },
  {
    "name": "Museo Storico Nazionale dell’Arte Sanitaria",
    "address": "Lungotevere in Sassia 3",
    "lat": 41.9006082,
    "lng": 12.4626415,
    "popularity": 100
  },
  {
    "name": "Ex-Mira Lanza Museum",
    "address": "Via Amedeo Avogadro",
    "lat": 41.8682418,
    "lng": 12.4701985,
    "popularity": 100
  },
  {
    "name": "Basilica di Sant’Agnese Fuori le Mura & Mausoleo di Santa Costanza",
    "address": "entrances at Via Nomentana 349 & Via di Sant'Agnese 3",
    "lat": 41.922995,
    "lng": 12.5188195,
    "popularity": 100
  }
]
