[
  {
    "name": "Zócalo",
    "address": "Plaza de la Constitución",
    "lat": 19.4326018,
    "lng": -99.1332049,
    "popularity": 8402
  },
  {
    "name": "Templo Mayor",
    "address": "Seminario 8",
    "lat": 19.4346038,
    "lng": -99.13188099999999,
    "popularity": 5272
  },
  {
    "name": "Museo Nacional de Antropología",
    "address": "cnr Paseo de la Reforma & Calz Gandhi",
    "lat": 19.4260032,
    "lng": -99.1862786,
    "popularity": 4378
  },
  {
    "name": "Catedral Metropolitana",
    "address": "Plaza de la Constitución",
    "lat": 19.4343942,
    "lng": -99.13308239999999,
    "popularity": 3456
  },
  {
    "name": "Basílica de Guadalupe",
    "address": "Plaza de las Américas 1",
    "lat": 19.4848564,
    "lng": -99.11786239999999,
    "popularity": 3092
  },
  {
    "name": "Palacio Nacional",
    "address": "Plaza de la Constitución",
    "lat": 19.4324451,
    "lng": -99.131193,
    "popularity": 2602
  },
  {
    "name": "Palacio de Bellas Artes",
    "address": "cnr Av Juárez & Eje Central Lázaro Cárdenas",
    "lat": 19.4352,
    "lng": -99.1412,
    "popularity": 2085
  },
  {
    "name": "Templo de San Francisco",
    "address": "Av Madero 7",
    "lat": 19.4334714,
    "lng": -99.1399726,
    "popularity": 1864
  },
  {
    "name": "Museo de la Ciudad de México",
    "address": "Pino Suárez 30",
    "lat": 19.4292369,
    "lng": -99.1321387,
    "popularity": 1803
  },
  {
    "name": "Torre Mayor",
    "address": "Paseo de la Reforma 505",
    "lat": 19.424024,
    "lng": -99.1751625,
    "popularity": 1781
  },
  {
    "name": "Alameda Central",
    "address": "",
    "lat": 19.4357619,
    "lng": -99.14411919999999,
    "popularity": 1576
  },
  {
    "name": "Castillo de Chapultepec",
    "address": "Bosque de Chapultepec",
    "lat": 19.4204397,
    "lng": -99.181935,
    "popularity": 1503
  },
  {
    "name": "Plaza Tolsá",
    "address": "",
    "lat": 19.4361417,
    "lng": -99.13945819999999,
    "popularity": 1440
  },
  {
    "name": "Monumento a la Revolución",
    "address": "Plaza de la República",
    "lat": 19.4362086,
    "lng": -99.1546298,
    "popularity": 1382
  },
  {
    "name": "Ciudad Universitaria",
    "address": "",
    "lat": 19.3228313,
    "lng": -99.18657739999999,
    "popularity": 1227
  },
  {
    "name": "Torre Latinoamericana",
    "address": "Eje Central Lázaro Cárdenas 2",
    "lat": 19.433921,
    "lng": -99.1406428,
    "popularity": 1191
  },
  {
    "name": "Museo Nacional de Arte",
    "address": "Tacuba 8",
    "lat": 19.4363926,
    "lng": -99.13938429999999,
    "popularity": 1138
  },
  {
    "name": "Zoológico de Chapultepec",
    "address": "Bosque de Chapultepec",
    "lat": 19.4232085,
    "lng": -99.1895256,
    "popularity": 926
  },
  {
    "name": "Iglesia de Santo Domingo",
    "address": "",
    "lat": 19.4385102,
    "lng": -99.13363869999999,
    "popularity": 876
  },
  {
    "name": "Museo Frida Kahlo",
    "address": "Londres 247",
    "lat": 19.355143,
    "lng": -99.16252490000001,
    "popularity": 866
  },
  {
    "name": "Centro de la Imagen",
    "address": "Plaza de la Ciudadela 2",
    "lat": 19.4289418,
    "lng": -99.1488357,
    "popularity": 857
  },
  {
    "name": "Museo de Arte Popular",
    "address": "cnr Independencia & Revillagigedo",
    "lat": 19.433779,
    "lng": -99.146322,
    "popularity": 856
  },
  {
    "name": "Plaza Santo Domingo",
    "address": "cnr República de Venezuela & República de Brasil",
    "lat": 19.4379741,
    "lng": -99.1337032,
    "popularity": 835
  },
  {
    "name": "La Feria",
    "address": "Bosque de Chapultepec",
    "lat": 19.416118,
    "lng": -99.19563699999999,
    "popularity": 824
  },
  {
    "name": "Museo Franz Mayer",
    "address": "Av Hidalgo 45",
    "lat": 19.4370914,
    "lng": -99.14301689999999,
    "popularity": 812
  },
  {
    "name": "Museo Nacional de Historia",
    "address": "",
    "lat": 19.4204791,
    "lng": -99.1818236,
    "popularity": 803
  },
  {
    "name": "Canals",
    "address": "Xochimilco",
    "lat": 19.3140617,
    "lng": -99.0750788,
    "popularity": 587
  },
  {
    "name": "Santa Muerte Altar",
    "address": "Alfarería",
    "lat": 19.4216668,
    "lng": -99.1469063,
    "popularity": 574
  },
  {
    "name": "Anahuacalli",
    "address": "Calle Museo 150",
    "lat": 19.3225622,
    "lng": -99.144078,
    "popularity": 571
  },
  {
    "name": "Museo Mural Diego Rivera",
    "address": "cnr Balderas & Colón",
    "lat": 19.4361804,
    "lng": -99.14695569999999,
    "popularity": 526
  },
  {
    "name": "Monumento a la Independencia",
    "address": "Paseo de la Reforma s/n",
    "lat": 19.4270245,
    "lng": -99.16766469999999,
    "popularity": 498
  },
  {
    "name": "Monumento a Cuauhtémoc",
    "address": "Paseo de la Reforma",
    "lat": 19.4310724,
    "lng": -99.1590152,
    "popularity": 490
  },
  {
    "name": "Palacio Postal",
    "address": "Tacuba 1",
    "lat": 19.435559,
    "lng": -99.1402372,
    "popularity": 453
  },
  {
    "name": "Museo de Arte Moderno",
    "address": "cnr Paseo de la Reforma & Calz Gandhi",
    "lat": 19.4229554,
    "lng": -99.1795961,
    "popularity": 452
  },
  {
    "name": "Sagrario Metropolitano",
    "address": "",
    "lat": 19.4343942,
    "lng": -99.13308239999999,
    "popularity": 440
  },
  {
    "name": "Museo Soumaya Plaza Carso",
    "address": "Blvd Miguel de Cervantes Saavedra 303",
    "lat": 19.4406926,
    "lng": -99.2047001,
    "popularity": 419
  },
  {
    "name": "Museo Nacional de Arquitectura",
    "address": "Av Juárez s/n",
    "lat": 19.4354995,
    "lng": -99.14118529999999,
    "popularity": 399
  },
  {
    "name": "Museo Universitario Arte Contemporáneo",
    "address": "Av Insurgentes Sur 3000",
    "lat": 19.3146508,
    "lng": -99.18539530000001,
    "popularity": 383
  },
  {
    "name": "Museo Dolores Olmedo",
    "address": "Av México 5843",
    "lat": 19.2656032,
    "lng": -99.1253409,
    "popularity": 383
  },
  {
    "name": "Monumento a Álvaro Obregón",
    "address": "",
    "lat": 19.3471481,
    "lng": -99.1860023,
    "popularity": 376
  },
  {
    "name": "Hemiciclo a Juárez",
    "address": "",
    "lat": 19.4350347,
    "lng": -99.1441073,
    "popularity": 362
  },
  {
    "name": "Avenida Madero",
    "address": "",
    "lat": 19.4336212,
    "lng": -99.13728119999999,
    "popularity": 361
  },
  {
    "name": "Museo Jumex",
    "address": "Blvd Miguel de Cervantes Saavedra 303",
    "lat": 19.4404627,
    "lng": -99.2035858,
    "popularity": 353
  },
  {
    "name": "Jardín Botánico",
    "address": "Paseo de la Reforma s/n",
    "lat": 19.3195889,
    "lng": -99.1935328,
    "popularity": 343
  },
  {
    "name": "Museo Nacional de San Carlos",
    "address": "Puente de Alvarado 50",
    "lat": 19.4380689,
    "lng": -99.1520429,
    "popularity": 335
  },
  {
    "name": "Casa de los Azulejos",
    "address": "Av Madero 4",
    "lat": 19.4343286,
    "lng": -99.140163,
    "popularity": 327
  },
  {
    "name": "Iglesia de Santa Catarina",
    "address": "",
    "lat": 19.4409839,
    "lng": -99.13290599999999,
    "popularity": 321
  },
  {
    "name": "Plaza de las Tres Culturas",
    "address": "cnr Eje Central Lázaro Cárdenas & Flores Magón",
    "lat": 19.4516892,
    "lng": -99.13759189999999,
    "popularity": 315
  },
  {
    "name": "Palacio de Minería",
    "address": "Tacuba 5",
    "lat": 19.4356267,
    "lng": -99.1395762,
    "popularity": 310
  },
  {
    "name": "La Diana Cazadora",
    "address": "cnr Paseo de la Reforma & Sevilla",
    "lat": 19.4251196,
    "lng": -99.17162359999999,
    "popularity": 292
  },
  {
    "name": "Plaza San Jacinto",
    "address": "San Ángel Centro",
    "lat": 19.3444677,
    "lng": -99.19232610000002,
    "popularity": 287
  },
  {
    "name": "Museo Tamayo",
    "address": "Paseo de la Reforma 51",
    "lat": 19.42572,
    "lng": -99.181716,
    "popularity": 286
  },
  {
    "name": "Estela de Luz",
    "address": "Paseo de la Reforma s/n",
    "lat": 19.4229704,
    "lng": -99.1756764,
    "popularity": 284
  },
  {
    "name": "Museo Nacional de la Revolución",
    "address": "Plaza de la República",
    "lat": 19.4362298,
    "lng": -99.15463129999999,
    "popularity": 276
  },
  {
    "name": "Museo Casa Estudio Diego Rivera y Frida Kahlo",
    "address": "cnr Diego Rivera & Av Altavista",
    "lat": 19.3495703,
    "lng": -99.1972772,
    "popularity": 276
  },
  {
    "name": "Iglesia de San Jacinto",
    "address": "San Jacinto 18-Bis",
    "lat": 19.3446556,
    "lng": -99.1934147,
    "popularity": 274
  },
  {
    "name": "Museo de El Carmen",
    "address": "Av Revolución 4",
    "lat": 19.3460085,
    "lng": -99.1897255,
    "popularity": 264
  },
  {
    "name": "Acuario Inbursa",
    "address": "Av Miguel de Cervantes Saavedra 386, Colonia Ampliación Granada",
    "lat": 19.4399445,
    "lng": -99.2051257,
    "popularity": 263
  },
  {
    "name": "Museo Nacional de las Culturas",
    "address": "Moneda 13",
    "lat": 19.4332126,
    "lng": -99.13039769999999,
    "popularity": 259
  },
  {
    "name": "Antiguo Colegio de San Ildefonso",
    "address": "Justo Sierra 16",
    "lat": 19.436341,
    "lng": -99.1308634,
    "popularity": 255
  },
  {
    "name": "Museo Memoria y Tolerancia",
    "address": "Plaza Juárez 12",
    "lat": 19.4344913,
    "lng": -99.1444686,
    "popularity": 240
  },
  {
    "name": "Jardín de la Bombilla",
    "address": "",
    "lat": 19.3472752,
    "lng": -99.1861941,
    "popularity": 232
  },
  {
    "name": "Museo de la Secretaría de Hacienda y Crédito Público",
    "address": "Moneda 4",
    "lat": 19.433758,
    "lng": -99.1311839,
    "popularity": 231
  },
  {
    "name": "Plaza Garibaldi",
    "address": "cnr Eje Central Lázaro Cárdenas & República de Honduras",
    "lat": 19.4406466,
    "lng": -99.13953749999999,
    "popularity": 226
  },
  {
    "name": "Viveros de Coyoacán",
    "address": "Av Progreso 1",
    "lat": 19.3535441,
    "lng": -99.17274139999999,
    "popularity": 220
  },
  {
    "name": "Museo del Estanquillo",
    "address": "Isabel La Católica 26",
    "lat": 19.4333193,
    "lng": -99.1361463,
    "popularity": 199
  },
  {
    "name": "La Ciudadela",
    "address": "",
    "lat": 19.4298846,
    "lng": -99.14824329999999,
    "popularity": 186
  },
  {
    "name": "Casa de Cortés",
    "address": "Jardín Hidalgo 1",
    "lat": 19.3502583,
    "lng": -99.1622585,
    "popularity": 186
  },
  {
    "name": "Museo del Juguete Antiguo México",
    "address": "Dr Olvera 15",
    "lat": 19.4153254,
    "lng": -99.1445165,
    "popularity": 183
  },
  {
    "name": "Centro Cultural de España",
    "address": "República de Guatemala 18",
    "lat": 19.4352521,
    "lng": -99.1329686,
    "popularity": 172
  },
  {
    "name": "Ex Teresa Arte Actual",
    "address": "Licenciado Verdad 8",
    "lat": 19.4339833,
    "lng": -99.13064419999999,
    "popularity": 168
  },
  {
    "name": "Monumento a Los Niños Héroes",
    "address": "Bosque de Chapultepec",
    "lat": 19.4215465,
    "lng": -99.1792273,
    "popularity": 154
  },
  {
    "name": "Parroquia de San Juan Bautista",
    "address": "Plaza Hidalgo",
    "lat": 19.349011,
    "lng": -99.1626308,
    "popularity": 146
  },
  {
    "name": "Museo Nacional de Culturas Populares",
    "address": "Av Hidalgo 289",
    "lat": 19.3499094,
    "lng": -99.161019,
    "popularity": 145
  },
  {
    "name": "Centro Cultural Universitario Tlatelolco",
    "address": "Flores Magón 1",
    "lat": 19.4498291,
    "lng": -99.13711040000001,
    "popularity": 145
  },
  {
    "name": "Museo Interactivo de Economía (MIDE)",
    "address": "Tacuba 17",
    "lat": 19.4354479,
    "lng": -99.13841749999999,
    "popularity": 144
  },
  {
    "name": "Monumento a la Madre",
    "address": "",
    "lat": 19.432383,
    "lng": -99.16024259999999,
    "popularity": 143
  },
  {
    "name": "Palacio de Iturbide",
    "address": "Av Madero 17",
    "lat": 19.4336391,
    "lng": -99.1390459,
    "popularity": 143
  },
  {
    "name": "Parque Nacional Desierto de los Leones",
    "address": "",
    "lat": 19.3131659,
    "lng": -99.3103283,
    "popularity": 142
  },
  {
    "name": "Papalote Museo del Niño",
    "address": "Bosque de Chapultepec",
    "lat": 19.4116523,
    "lng": -99.1947372,
    "popularity": 141
  },
  {
    "name": "Museo del Objeto del Objeto",
    "address": "Colima 145",
    "lat": 19.42023,
    "lng": -99.159076,
    "popularity": 137
  },
  {
    "name": "Biblioteca de México José Vasconcelos",
    "address": "Plaza de la Ciudadela 4",
    "lat": 19.4286444,
    "lng": -99.14961579999999,
    "popularity": 133
  },
  {
    "name": "Museo Casa de León Trotsky",
    "address": "Av Río Churubusco 410",
    "lat": 19.3576465,
    "lng": -99.1595725,
    "popularity": 131
  },
  {
    "name": "Audiorama",
    "address": "",
    "lat": 19.4193588,
    "lng": -99.1812303,
    "popularity": 127
  },
  {
    "name": "Museo Universitario del Chopo",
    "address": "Enrique González Martínez 10",
    "lat": 19.441959,
    "lng": -99.1566017,
    "popularity": 122
  },
  {
    "name": "Museo de Arte Carrillo Gil",
    "address": "Av Revolución 1608",
    "lat": 19.3492928,
    "lng": -99.1903131,
    "popularity": 121
  },
  {
    "name": "Plaza de Santa Veracruz",
    "address": "",
    "lat": 19.4372808,
    "lng": -99.1421714,
    "popularity": 121
  },
  {
    "name": "Laboratorio de Arte Alameda",
    "address": "Dr Mora 7",
    "lat": 19.4364631,
    "lng": -99.14614499999999,
    "popularity": 120
  },
  {
    "name": "Torre BBVA Bancomer",
    "address": "Paseo de la Reforma s/n",
    "lat": 19.4227491,
    "lng": -99.1749373,
    "popularity": 120
  },
  {
    "name": "Templo de la Santísima Trinidad",
    "address": "cnr Santísima & Zapata",
    "lat": 19.4331195,
    "lng": -99.1268382,
    "popularity": 117
  },
  {
    "name": "Museo Nacional de las Intervenciones",
    "address": "20 de Agosto s/n",
    "lat": 19.3550024,
    "lng": -99.14879499999999,
    "popularity": 115
  },
  {
    "name": "Monumento a Cristóbal Colón",
    "address": "Paseo de la Reforma s/n",
    "lat": 19.4331064,
    "lng": -99.15480850000002,
    "popularity": 114
  },
  {
    "name": "Centro Bursátil",
    "address": "Paseo de la Reforma s/n",
    "lat": 19.4302249,
    "lng": -99.2117564,
    "popularity": 114
  },
  {
    "name": "Plaza Santa Catarina",
    "address": "",
    "lat": 19.3455862,
    "lng": -99.17028769999999,
    "popularity": 113
  },
  {
    "name": "Museo de la Basílica de Guadalupe",
    "address": "",
    "lat": 19.4851732,
    "lng": -99.1165276,
    "popularity": 112
  },
  {
    "name": "Postal Museum",
    "address": "",
    "lat": 19.435559,
    "lng": -99.1402372,
    "popularity": 112
  },
  {
    "name": "Centro de Cultura Digital",
    "address": "Estela de Luz",
    "lat": 19.4231346,
    "lng": -99.1758022,
    "popularity": 111
  },
  {
    "name": "Museo José Luis Cuevas",
    "address": "Academia 13",
    "lat": 19.4336944,
    "lng": -99.1289587,
    "popularity": 110
  },
  {
    "name": "1a Sección",
    "address": "",
    "lat": 19.4029153,
    "lng": -99.18298329999999,
    "popularity": 110
  },
  {
    "name": "Zona Arqueológica Cuicuilco",
    "address": "Av Insurgentes Sur s/n",
    "lat": 19.3006865,
    "lng": -99.18162790000001,
    "popularity": 110
  },
  {
    "name": "Museo de la Tortura",
    "address": "Tacuba 15",
    "lat": 19.435527,
    "lng": -99.138697,
    "popularity": 110
  },
  {
    "name": "Museo Universitario de Ciencias",
    "address": "Circuito Cultural de Ciudad Universitaria s/n",
    "lat": 19.3311389,
    "lng": -99.1877222,
    "popularity": 109
  },
  {
    "name": "Secretaría de Educación Pública",
    "address": "República de Brasil 31",
    "lat": 19.3678301,
    "lng": -99.16307069999999,
    "popularity": 108
  },
  {
    "name": "Suprema Corte de Justicia",
    "address": "Pino Suárez 2",
    "lat": 19.4214467,
    "lng": -99.08846129999999,
    "popularity": 108
  },
  {
    "name": "Palacio de la Inquisición",
    "address": "",
    "lat": 19.4378498,
    "lng": -99.1329818,
    "popularity": 107
  },
  {
    "name": "Portales de Santo Domingo",
    "address": "",
    "lat": 19.4385102,
    "lng": -99.13363869999999,
    "popularity": 107
  },
  {
    "name": "Mucho Mundo Chocolate Museum",
    "address": "Milán 45, Colonia Juárez",
    "lat": 19.4294418,
    "lng": -99.1571652,
    "popularity": 107
  },
  {
    "name": "Ex-Convento de Churubusco",
    "address": "20 de Agosto s/n",
    "lat": 19.3558684,
    "lng": -99.14897339999999,
    "popularity": 106
  },
  {
    "name": "Museo Jardín del Agua",
    "address": "Bosque de Chapultepec",
    "lat": 19.4134336,
    "lng": -99.1964119,
    "popularity": 105
  },
  {
    "name": "Museo Nacional de la Estampa",
    "address": "Av Hidalgo 39",
    "lat": 19.43686,
    "lng": -99.14269999999999,
    "popularity": 104
  },
  {
    "name": "Museo Casa del Risco",
    "address": "Plaza San Jacinto 15",
    "lat": 19.3448087,
    "lng": -99.1919518,
    "popularity": 104
  },
  {
    "name": "Kurimanzutto Gallery",
    "address": "Gobernador Rafael Rebollar 94, Colonia San Miguel Chapultepec",
    "lat": 19.411377,
    "lng": -99.18760499999999,
    "popularity": 103
  },
  {
    "name": "Museo del Tequila y el Mezcal",
    "address": "Plaza Garibaldi",
    "lat": 19.4406928,
    "lng": -99.1395869,
    "popularity": 103
  },
  {
    "name": "Museo de Historia de Tlalpán",
    "address": "Plaza de la Constitución 10",
    "lat": 19.2878678,
    "lng": -99.16667149999999,
    "popularity": 103
  },
  {
    "name": "Centro de Cultura Casa Lamm",
    "address": "Álvaro Obregón 99",
    "lat": 19.4186885,
    "lng": -99.1593377,
    "popularity": 101
  },
  {
    "name": "Monumento a la Revolución Observation Deck",
    "address": "Plaza de la República",
    "lat": 19.4362086,
    "lng": -99.1546298,
    "popularity": 101
  },
  {
    "name": "MUCA Roma",
    "address": "Tonalá 51",
    "lat": 19.4190609,
    "lng": -99.16299289999999,
    "popularity": 101
  },
  {
    "name": "Fuente de Xochipilli",
    "address": "",
    "lat": 19.4151368,
    "lng": -99.1991542,
    "popularity": 101
  },
  {
    "name": "Tribuna Monumental de las Águilas",
    "address": "",
    "lat": 19.4193907,
    "lng": -99.1809815,
    "popularity": 100
  },
  {
    "name": "Plaza Juárez",
    "address": "",
    "lat": 19.2989805,
    "lng": -99.03956610000002,
    "popularity": 100
  },
  {
    "name": "Galeria López Quiroga",
    "address": "Aristóteles 169",
    "lat": 19.4334671,
    "lng": -99.1931781,
    "popularity": 100
  },
  {
    "name": "Futura CDMX",
    "address": "Jiménez 13",
    "lat": 19.427429,
    "lng": -99.14009,
    "popularity": 100
  },
  {
    "name": "Capilla de las Capuchinas Sacramentarias",
    "address": "Av Hidalgo 43",
    "lat": 19.288234,
    "lng": -99.1643756,
    "popularity": 100
  },
  {
    "name": "Iglesia de la Santa Veracuz",
    "address": "",
    "lat": 19.4367664,
    "lng": -99.1422544,
    "popularity": 100
  },
  {
    "name": "El Caballito",
    "address": "Paseo de la Reforma s/n",
    "lat": 19.3072768,
    "lng": -99.271802,
    "popularity": 100
  },
  {
    "name": "Plaza Hidalgo & Jardín Centenario",
    "address": "",
    "lat": 19.3773243,
    "lng": -99.062575,
    "popularity": 100
  },
  {
    "name": "Los Pinos Presidential Residence",
    "address": "",
    "lat": 19.4156143,
    "lng": -99.1912523,
    "popularity": 100
  },
  {
    "name": "Paseo Cimentación",
    "address": "",
    "lat": 19.4272739,
    "lng": -99.1654385,
    "popularity": 100
  },
  {
    "name": "La Jalisciense",
    "address": "Plaza de la Constitución 7",
    "lat": 19.377908,
    "lng": -99.20412309999999,
    "popularity": 100
  },
  {
    "name": "Galería Abierta de las Rejas de Chapultepec",
    "address": "",
    "lat": 19.4243186,
    "lng": -99.1848435,
    "popularity": 100
  },
  {
    "name": "Museo Archivo de la Fotografía",
    "address": "República de Guatemala 34",
    "lat": 19.4350489,
    "lng": -99.13212779999999,
    "popularity": 100
  },
  {
    "name": "Centro Cultural Jesús Reyes Heroles",
    "address": "Av Francisco Sosa 202",
    "lat": 19.3493223,
    "lng": -99.170671,
    "popularity": 100
  },
  {
    "name": "Casa Frisaac",
    "address": "Plaza de la Constitución 1",
    "lat": 19.2889983,
    "lng": -99.16727739999999,
    "popularity": 100
  },
  {
    "name": "Museo del Calzado El Borceguí",
    "address": "Bolívar 27",
    "lat": 19.433121,
    "lng": -99.13849320000001,
    "popularity": 100
  }
]
