[
  {
    "name": "La Sagrada Família",
    "address": "Carrer de Mallorca 401",
    "lat": 41.4036299,
    "lng": 2.1743558,
    "popularity": 19142
  },
  {
    "name": "Casa Batlló",
    "address": "Passeig de Gràcia 43",
    "lat": 41.3916384,
    "lng": 2.1647698,
    "popularity": 16851
  },
  {
    "name": "Park Güell",
    "address": "Carrer d’Olot 7",
    "lat": 41.4144948,
    "lng": 2.1526945,
    "popularity": 12557
  },
  {
    "name": "La Pedrera",
    "address": "Passeig de Gràcia 92",
    "lat": 41.3953805,
    "lng": 2.1619614,
    "popularity": 11031
  },
  {
    "name": "La Rambla",
    "address": "",
    "lat": 41.38071009999999,
    "lng": 2.1735254,
    "popularity": 9611
  },
  {
    "name": "Plaça de Catalunya",
    "address": "",
    "lat": 41.3870154,
    "lng": 2.1700471,
    "popularity": 8829
  },
  {
    "name": "Tibidabo",
    "address": "",
    "lat": 41.4225,
    "lng": 2.118611,
    "popularity": 6625
  },
  {
    "name": "MACBA",
    "address": "Plaça dels Àngels 1",
    "lat": 41.3831913,
    "lng": 2.1668668,
    "popularity": 5524
  },
  {
    "name": "Mercat de la Boqueria",
    "address": "La Rambla 91",
    "lat": 41.3817399,
    "lng": 2.1715853,
    "popularity": 4615
  },
  {
    "name": "Torre Agbar",
    "address": "Av Diagonal 225",
    "lat": 41.4034049,
    "lng": 2.1895931,
    "popularity": 3842
  },
  {
    "name": "Parc de la Ciutadella",
    "address": "Passeig de Picasso",
    "lat": 41.388123,
    "lng": 2.1860152,
    "popularity": 3584
  },
  {
    "name": "La Catedral",
    "address": "Plaça de la Seu",
    "lat": 41.383962,
    "lng": 2.1761991,
    "popularity": 3341
  },
  {
    "name": "Zoo de Barcelona",
    "address": "Parc de la Ciutadella",
    "lat": 41.386333,
    "lng": 2.1898576,
    "popularity": 3282
  },
  {
    "name": "Universitat de Barcelona",
    "address": "Gran Via de les Corts Catalanes 585",
    "lat": 41.386608,
    "lng": 2.16402,
    "popularity": 2887
  },
  {
    "name": "Ajuntament",
    "address": "Plaça de Sant Jaume",
    "lat": 41.3822713,
    "lng": 2.1775065,
    "popularity": 2733
  },
  {
    "name": "Plaça Reial",
    "address": "",
    "lat": 41.3799903,
    "lng": 2.1750372,
    "popularity": 2663
  },
  {
    "name": "Castell de Montjuïc",
    "address": "Carretera de Montjuïc 66",
    "lat": 41.362959,
    "lng": 2.1650636,
    "popularity": 2644
  },
  {
    "name": "Palau Sant Jordi",
    "address": "",
    "lat": 41.36337169999999,
    "lng": 2.152593,
    "popularity": 2629
  },
  {
    "name": "Poble Espanyol",
    "address": "Avinguda de Francesc Ferrer i Guàrdia 13",
    "lat": 41.3688085,
    "lng": 2.1482732,
    "popularity": 2514
  },
  {
    "name": "Museu Nacional d’Art de Catalunya (MNAC)",
    "address": "Mirador del Palau Nacional",
    "lat": 41.3684399,
    "lng": 2.15357,
    "popularity": 2246
  },
  {
    "name": "Palau Güell",
    "address": "Carrer Nou de la Rambla 3-5",
    "lat": 41.3788851,
    "lng": 2.1742398,
    "popularity": 2246
  },
  {
    "name": "Font Màgica",
    "address": "Avinguda de la Reina Maria Cristina",
    "lat": 41.3711603,
    "lng": 2.1517403,
    "popularity": 2238
  },
  {
    "name": "Plaça de Sant Jaume",
    "address": "",
    "lat": 41.3824823,
    "lng": 2.1768655,
    "popularity": 2083
  },
  {
    "name": "Palau de la Música Catalana",
    "address": "Carrer de Palau de la Música 4-6",
    "lat": 41.3875752,
    "lng": 2.1753128,
    "popularity": 1980
  },
  {
    "name": "Port Olímpic",
    "address": "Av del Litoral",
    "lat": 41.3876612,
    "lng": 2.1989843,
    "popularity": 1955
  },
  {
    "name": "Arc de Triomf",
    "address": "Passeig de Lluís Companys",
    "lat": 41.3910524,
    "lng": 2.1806449,
    "popularity": 1940
  },
  {
    "name": "Barcelona Head",
    "address": "Passeig de Colom",
    "lat": 41.3809137,
    "lng": 2.1824679,
    "popularity": 1876
  },
  {
    "name": "El Fòrum",
    "address": "",
    "lat": 41.4106781,
    "lng": 2.2263421,
    "popularity": 1685
  },
  {
    "name": "Colònia Güell",
    "address": "Carrer Claudi Güell",
    "lat": 41.363877,
    "lng": 2.027846,
    "popularity": 1649
  },
  {
    "name": "Jardí Botànic",
    "address": "Carrer del Doctor Font i Quer 2",
    "lat": 41.3620735,
    "lng": 2.1576895,
    "popularity": 1555
  },
  {
    "name": "Plaça d’Espanya & Around",
    "address": "",
    "lat": 41.3750293,
    "lng": 2.1491172,
    "popularity": 1442
  },
  {
    "name": "Palau Montaner",
    "address": "Carrer de Mallorca 278",
    "lat": 41.3955671,
    "lng": 2.1650662,
    "popularity": 1408
  },
  {
    "name": "Sant Cugat del Vallès",
    "address": "Plaça Octavià",
    "lat": 41.4526016,
    "lng": 2.0763253,
    "popularity": 1375
  },
  {
    "name": "CosmoCaixa",
    "address": "Carrer d'Isaac Newton 26",
    "lat": 41.412972,
    "lng": 2.131551,
    "popularity": 1343
  },
  {
    "name": "Parlament de Catalunya",
    "address": "",
    "lat": 41.3881296,
    "lng": 2.1889826,
    "popularity": 1239
  },
  {
    "name": "CaixaForum",
    "address": "Avinguda de Francesc Ferrer i Guàrdia 6-8",
    "lat": 41.371308,
    "lng": 2.149575,
    "popularity": 1225
  },
  {
    "name": "Museu d'Història de Barcelona",
    "address": "Plaça del Rei",
    "lat": 41.3839062,
    "lng": 2.177837,
    "popularity": 1218
  },
  {
    "name": "Fundació Joan Miró",
    "address": "Parc de Montjuïc",
    "lat": 41.3686304,
    "lng": 2.1598509,
    "popularity": 1121
  },
  {
    "name": "Plaça del Rei",
    "address": "",
    "lat": 41.3841972,
    "lng": 2.1773925,
    "popularity": 1106
  },
  {
    "name": "Casa Amatller",
    "address": "Passeig de Gràcia 41",
    "lat": 41.3914803,
    "lng": 2.1649813,
    "popularity": 1022
  },
  {
    "name": "Museu d’Història de Catalunya",
    "address": "Plaça de Pau Vila 3",
    "lat": 41.380715,
    "lng": 2.186015,
    "popularity": 991
  },
  {
    "name": "Palau de la Generalitat",
    "address": "Plaça de Sant Jaume",
    "lat": 41.3828639,
    "lng": 2.1767069,
    "popularity": 984
  },
  {
    "name": "Museu Marítim",
    "address": "Avinguda de les Drassanes",
    "lat": 41.3752357,
    "lng": 2.1759475,
    "popularity": 961
  },
  {
    "name": "Rambla de Mar",
    "address": "Off Pg de Colom",
    "lat": 41.3751254,
    "lng": 2.1808292,
    "popularity": 914
  },
  {
    "name": "Cascada",
    "address": "",
    "lat": 41.3900853,
    "lng": 2.1865555,
    "popularity": 816
  },
  {
    "name": "L’Aquàrium",
    "address": "Moll d’Espanya",
    "lat": 41.37683699999999,
    "lng": 2.184338,
    "popularity": 794
  },
  {
    "name": "Casa Vicens",
    "address": "Carrer de les Carolines 22",
    "lat": 41.4034978,
    "lng": 2.1506455,
    "popularity": 764
  },
  {
    "name": "Parc de Joan Miró",
    "address": "Carrer de Tarragona",
    "lat": 41.3780556,
    "lng": 2.1484207,
    "popularity": 747
  },
  {
    "name": "Mercat de Santa Caterina",
    "address": "Avinguda de Francesc Cambó 16",
    "lat": 41.3862056,
    "lng": 2.178438,
    "popularity": 690
  },
  {
    "name": "Parc de Collserola",
    "address": "Carretera de l’Església 92",
    "lat": 41.44255039999999,
    "lng": 2.1016603,
    "popularity": 680
  },
  {
    "name": "Casa Lleó Morera",
    "address": "Passeig de Gràcia 35",
    "lat": 41.3911857,
    "lng": 2.1655243,
    "popularity": 676
  },
  {
    "name": "Museu d'Arqueologia de Catalunya",
    "address": "Passeig de Santa Madrona 39-41",
    "lat": 41.3697771,
    "lng": 2.1576602,
    "popularity": 669
  },
  {
    "name": "Museu Blau",
    "address": "Parc del Fòrum",
    "lat": 41.41114049999999,
    "lng": 2.2210377,
    "popularity": 633
  },
  {
    "name": "Museu Frederic Marès",
    "address": "Plaça de Sant Iu 5",
    "lat": 41.3842021,
    "lng": 2.1767544,
    "popularity": 619
  },
  {
    "name": "La Capella",
    "address": "Carrer de l’Hospital",
    "lat": 41.3805201,
    "lng": 2.1703194,
    "popularity": 608
  },
  {
    "name": "Casa-Museu Gaudí",
    "address": "Park Güell",
    "lat": 41.4144423,
    "lng": 2.1535638,
    "popularity": 604
  },
  {
    "name": "Mirador de Colom",
    "address": "Plaça del Portal de la Pau",
    "lat": 41.37577280000001,
    "lng": 2.1778417,
    "popularity": 586
  },
  {
    "name": "Temple del Sagrat Cor",
    "address": "Plaça de Tibidabo",
    "lat": 41.42207519999999,
    "lng": 2.1187873,
    "popularity": 585
  },
  {
    "name": "Torre de Collserola",
    "address": "Carretera de Vallvidrera al Tibidabo",
    "lat": 41.41726389999999,
    "lng": 2.1142626,
    "popularity": 559
  },
  {
    "name": "Bellesguard",
    "address": "Carrer de Bellesguard 16",
    "lat": 41.409521,
    "lng": 2.1267202,
    "popularity": 518
  },
  {
    "name": "Carrer de Montcada",
    "address": "",
    "lat": 41.38508059999999,
    "lng": 2.1808983,
    "popularity": 490
  },
  {
    "name": "Rambla del Raval",
    "address": "",
    "lat": 41.3788239,
    "lng": 2.1688838,
    "popularity": 482
  },
  {
    "name": "Roman Walls",
    "address": "",
    "lat": 41.3839062,
    "lng": 2.177837,
    "popularity": 479
  },
  {
    "name": "Estadi Olímpic Lluís Companys",
    "address": "Avinguda de l'Estadi",
    "lat": 41.3647606,
    "lng": 2.1556508,
    "popularity": 478
  },
  {
    "name": "Gran Teatre del Liceu",
    "address": "La Rambla 51-59",
    "lat": 41.3801969,
    "lng": 2.1732948,
    "popularity": 471
  },
  {
    "name": "Telefèric de Montjuïc",
    "address": "Av de Miramar 30",
    "lat": 41.3687464,
    "lng": 2.1634336,
    "popularity": 467
  },
  {
    "name": "Museu Picasso",
    "address": "Carrer de Montcada 15-23",
    "lat": 41.385216,
    "lng": 2.1808927,
    "popularity": 456
  },
  {
    "name": "Jardins de Mossèn Costa i Llobera",
    "address": "Carretera de Miramar 1",
    "lat": 41.3686605,
    "lng": 2.1719017,
    "popularity": 441
  },
  {
    "name": "Pavelló Mies van der Rohe",
    "address": "Avinguda de Francesc Ferrer i Guàrdia 7",
    "lat": 41.3706091,
    "lng": 2.1501628,
    "popularity": 416
  },
  {
    "name": "Casa de les Punxes",
    "address": "Avinguda Diagonal 420",
    "lat": 41.39791,
    "lng": 2.1639081,
    "popularity": 394
  },
  {
    "name": "Basílica de Santa Maria del Mar",
    "address": "Plaça de Santa Maria del Mar",
    "lat": 41.3838871,
    "lng": 2.1820711,
    "popularity": 387
  },
  {
    "name": "Platja de la Barceloneta",
    "address": "",
    "lat": 41.378626,
    "lng": 2.1925483,
    "popularity": 378
  },
  {
    "name": "Palau Robert",
    "address": "Passeig de Gràcia 107",
    "lat": 41.3961546,
    "lng": 2.1594492,
    "popularity": 371
  },
  {
    "name": "Camp Nou Experience",
    "address": "Gate 9, Avinguda de Joan XXIII",
    "lat": 41.3805098,
    "lng": 2.1207454,
    "popularity": 364
  },
  {
    "name": "Moll de la Fusta",
    "address": "",
    "lat": 41.3806835,
    "lng": 2.1820856,
    "popularity": 360
  },
  {
    "name": "Museu del Modernisme Barcelona",
    "address": "Carrer de Balmes 48",
    "lat": 41.388887,
    "lng": 2.163376,
    "popularity": 350
  },
  {
    "name": "Casa de l’Ardiaca",
    "address": "Carrer de Santa Llúcia 1",
    "lat": 41.38415579999999,
    "lng": 2.1757047,
    "popularity": 331
  },
  {
    "name": "Museu Etnològic",
    "address": "Passeig de Santa Madrona 16-22",
    "lat": 41.3687769,
    "lng": 2.1563055,
    "popularity": 331
  },
  {
    "name": "Teleférico del Puerto",
    "address": "Av de Miramar, Jardins de Miramar",
    "lat": 41.3711081,
    "lng": 2.1725686,
    "popularity": 329
  },
  {
    "name": "Teleférico del Puerto",
    "address": "Passeig Escullera",
    "lat": 41.3711081,
    "lng": 2.1725686,
    "popularity": 329
  },
  {
    "name": "Gaudí Experience",
    "address": "Carrer de Larrard 41",
    "lat": 41.4124873,
    "lng": 2.1536647,
    "popularity": 324
  },
  {
    "name": "Moll d'Espanya",
    "address": "",
    "lat": 41.3776489,
    "lng": 2.1845425,
    "popularity": 321
  },
  {
    "name": "Homenatge a Picasso",
    "address": "Passeig de Picasso",
    "lat": 41.385216,
    "lng": 2.1808927,
    "popularity": 318
  },
  {
    "name": "Jardins de Joan Maragall",
    "address": "Avinguda dels Montanyans 48",
    "lat": 41.3668444,
    "lng": 2.153028,
    "popularity": 303
  },
  {
    "name": "Plaça de Sant Josep Oriol",
    "address": "",
    "lat": 41.3823006,
    "lng": 2.1742712,
    "popularity": 294
  },
  {
    "name": "Museu del Disseny de Barcelona",
    "address": "Plaça de les Glòries Catalanes 37",
    "lat": 41.402451,
    "lng": 2.1880918,
    "popularity": 283
  },
  {
    "name": "Dona i Ocell",
    "address": "Carrer de Tarragona",
    "lat": 41.3778174,
    "lng": 2.1469662,
    "popularity": 281
  },
  {
    "name": "Parc d’Atraccions",
    "address": "Plaça de Tibidabo 3-4",
    "lat": 41.4230441,
    "lng": 2.1197801,
    "popularity": 277
  },
  {
    "name": "Fundació Antoni Tàpies",
    "address": "Carrer d’Aragó 255",
    "lat": 41.3915474,
    "lng": 2.1637697,
    "popularity": 276
  },
  {
    "name": "Palau del Lloctinent",
    "address": "Carrer dels Comtes",
    "lat": 41.3841972,
    "lng": 2.1773925,
    "popularity": 274
  },
  {
    "name": "Jardins de Mossèn Cinto de Verdaguer",
    "address": "",
    "lat": 41.3676342,
    "lng": 2.1641835,
    "popularity": 269
  },
  {
    "name": "Palau de Mar",
    "address": "Plaça de Pau Vila",
    "lat": 41.3876218,
    "lng": 2.1665452,
    "popularity": 264
  },
  {
    "name": "El Fossar de les Moreres",
    "address": "",
    "lat": 41.383708,
    "lng": 2.1825664,
    "popularity": 259
  },
  {
    "name": "Església de Betlem",
    "address": "Carrer d'en Xuclà 2",
    "lat": 41.3830953,
    "lng": 2.1713122,
    "popularity": 247
  },
  {
    "name": "Església de Sant Joan",
    "address": "Carrer de la Santa Creu",
    "lat": 41.40501580000001,
    "lng": 2.1571596,
    "popularity": 239
  },
  {
    "name": "Via Sepulcral Romana",
    "address": "Plaça de la Vila de Madrid",
    "lat": 41.3844117,
    "lng": 2.1721591,
    "popularity": 233
  },
  {
    "name": "Jardins del Palau de Pedralbes",
    "address": "Avinguda Diagonal 686",
    "lat": 41.3880083,
    "lng": 2.1173573,
    "popularity": 229
  },
  {
    "name": "Recinte Modernista de Sant Pau",
    "address": "Carrer de Sant Antoni Maria Claret 167",
    "lat": 41.41184130000001,
    "lng": 2.1744033,
    "popularity": 223
  },
  {
    "name": "Peix Sculpture",
    "address": "Carrer de Ramon Trias Fargas 2",
    "lat": 41.3859751,
    "lng": 2.1967332,
    "popularity": 222
  },
  {
    "name": "Passeig Marítim de la Barceloneta",
    "address": "",
    "lat": 41.3809044,
    "lng": 2.1932832,
    "popularity": 220
  },
  {
    "name": "Museu de la Música",
    "address": "Carrer de Lepant 150",
    "lat": 41.398695,
    "lng": 2.185384,
    "popularity": 220
  },
  {
    "name": "Centre de Cultura Contemporània de Barcelona",
    "address": "Carrer de Montalegre 5",
    "lat": 41.38378600000001,
    "lng": 2.166775,
    "popularity": 216
  },
  {
    "name": "Museu de Cultures del Món",
    "address": "Carrer de Montcada 12",
    "lat": 41.385063,
    "lng": 2.180867,
    "popularity": 216
  },
  {
    "name": "Font de Canaletes",
    "address": "",
    "lat": 41.38513409999999,
    "lng": 2.1701826,
    "popularity": 214
  },
  {
    "name": "Castell dels Tres Dragons",
    "address": "",
    "lat": 41.3881065,
    "lng": 2.1833685,
    "popularity": 213
  },
  {
    "name": "Museu Europeu d’Art Modern",
    "address": "Carrer Barra de Ferro 5",
    "lat": 41.3850453,
    "lng": 2.1803792,
    "popularity": 212
  },
  {
    "name": "Museu de la Xocolata",
    "address": "Carrer del Comerç 36",
    "lat": 41.387148,
    "lng": 2.181746,
    "popularity": 211
  },
  {
    "name": "Jardins del Mirador",
    "address": "",
    "lat": 41.3671061,
    "lng": 2.1688851,
    "popularity": 209
  },
  {
    "name": "Observatori Fabra",
    "address": "Carretera del Observatori",
    "lat": 41.418417,
    "lng": 2.1241891,
    "popularity": 202
  },
  {
    "name": "Palau de la Virreina",
    "address": "La Rambla 99",
    "lat": 41.382442,
    "lng": 2.1716631,
    "popularity": 200
  },
  {
    "name": "Museu Olímpic i de l'Esport",
    "address": "Avinguda de l'Estadi 60",
    "lat": 41.3662882,
    "lng": 2.1575042,
    "popularity": 197
  },
  {
    "name": "Cementiri del Poblenou",
    "address": "Av d'Icària",
    "lat": 41.3958991,
    "lng": 2.2030233,
    "popularity": 194
  },
  {
    "name": "Antic Hospital de la Santa Creu",
    "address": "Carrer de l’Hospital 56",
    "lat": 41.3810439,
    "lng": 2.1697927,
    "popularity": 188
  },
  {
    "name": "Jardins del Laberint d’Horta",
    "address": "Passeig del Castanyers 1",
    "lat": 41.4402361,
    "lng": 2.1457981,
    "popularity": 184
  },
  {
    "name": "Església de la Mercè",
    "address": "Plaça de la Mercè 1",
    "lat": 41.3794018,
    "lng": 2.1795498,
    "popularity": 181
  },
  {
    "name": "Bunkers del Carmel",
    "address": "",
    "lat": 41.419318,
    "lng": 2.1616542,
    "popularity": 180
  },
  {
    "name": "Església de Santa Maria del Pi",
    "address": "Plaça del Pi",
    "lat": 41.3821588,
    "lng": 2.1739556,
    "popularity": 175
  },
  {
    "name": "Pavellons Güell",
    "address": "Avinguda de Pedralbes 7",
    "lat": 41.3892855,
    "lng": 2.1190391,
    "popularity": 174
  },
  {
    "name": "Museu Diocesà",
    "address": "Plaça de la Seu 7",
    "lat": 41.3846431,
    "lng": 2.176146,
    "popularity": 174
  },
  {
    "name": "Platja de Sant Sebastià",
    "address": "",
    "lat": 41.3702733,
    "lng": 2.1890903,
    "popularity": 169
  },
  {
    "name": "Mercat de la Llibertat",
    "address": "Plaça de la Llibertat 27",
    "lat": 41.3999009,
    "lng": 2.153484,
    "popularity": 167
  },
  {
    "name": "Cementiri del Sud-Oest",
    "address": "Carrer de la Mare de Déu de Port 56-58",
    "lat": 41.3548148,
    "lng": 2.1536193,
    "popularity": 166
  },
  {
    "name": "Museu Can Framis",
    "address": "Carrer de Roc Boronat 116",
    "lat": 41.403177,
    "lng": 2.194923,
    "popularity": 165
  },
  {
    "name": "Jardins de Joan Brossa",
    "address": "",
    "lat": 41.36831,
    "lng": 2.1674475,
    "popularity": 165
  },
  {
    "name": "Palau Moja",
    "address": "Carrer de Portaferrissa 1",
    "lat": 41.3833257,
    "lng": 2.1719003,
    "popularity": 159
  },
  {
    "name": "Fundació Suñol",
    "address": "Passeig de Gràcia 98",
    "lat": 41.39558419999999,
    "lng": 2.1612486,
    "popularity": 159
  },
  {
    "name": "Parc del Centre del Poblenou",
    "address": "Avinguda Diagonal",
    "lat": 41.407503,
    "lng": 2.2008771,
    "popularity": 153
  },
  {
    "name": "Museu de Cera",
    "address": "Passatge de la Banca 7",
    "lat": 41.3771147,
    "lng": 2.1769949,
    "popularity": 152
  },
  {
    "name": "Homenatge a la Barceloneta",
    "address": "Passeig Marítim",
    "lat": 41.3765228,
    "lng": 2.1911623,
    "popularity": 147
  },
  {
    "name": "Parc de la Creueta del Coll",
    "address": "Passeig de la Mare de Déu del Coll 77",
    "lat": 41.4186608,
    "lng": 2.1468122,
    "popularity": 146
  },
  {
    "name": "Edifici de Gas Natural",
    "address": "Passeig de Salvat Papasseit",
    "lat": 41.3831952,
    "lng": 2.1906648,
    "popularity": 145
  },
  {
    "name": "Capella MACBA",
    "address": "Plaça dels Àngels",
    "lat": 41.3831913,
    "lng": 2.1668668,
    "popularity": 145
  },
  {
    "name": "Església de Sant Pau del Camp",
    "address": "Carrer de Sant Pau 101",
    "lat": 41.37621,
    "lng": 2.16949,
    "popularity": 143
  },
  {
    "name": "Mirador del Palau Nacional",
    "address": "",
    "lat": 41.368205,
    "lng": 2.152231,
    "popularity": 142
  },
  {
    "name": "Casa Golferichs",
    "address": "Gran Via de les Corts Catalanes 491",
    "lat": 41.3808555,
    "lng": 2.1563593,
    "popularity": 139
  },
  {
    "name": "Palau del Baró Quadras",
    "address": "Avinguda Diagonal 373",
    "lat": 41.3967565,
    "lng": 2.1613672,
    "popularity": 137
  },
  {
    "name": "Centre Cívic Can Deu",
    "address": "Plaça de la Concòrdia 13",
    "lat": 41.3867791,
    "lng": 2.1325449,
    "popularity": 136
  },
  {
    "name": "Església de Sant Miquel del Port",
    "address": "Plaça de la Barceloneta",
    "lat": 41.3797942,
    "lng": 2.1885089,
    "popularity": 134
  },
  {
    "name": "Pailebot de Santa Eulàlia",
    "address": "Moll de la Fusta",
    "lat": 41.394976,
    "lng": 2.160906,
    "popularity": 134
  },
  {
    "name": "Arxiu Fotogràfic de Barcelona",
    "address": "Plaça de Pons i Clerch 2",
    "lat": 41.3869042,
    "lng": 2.181775,
    "popularity": 133
  },
  {
    "name": "Museu Egipci",
    "address": "Carrer de València 284",
    "lat": 41.3935601,
    "lng": 2.1646507,
    "popularity": 133
  },
  {
    "name": "Col·lecció de Carrosses Fúnebres",
    "address": "Carrer de la Mare de Déu de Port 56-58",
    "lat": 41.3530308,
    "lng": 2.1560682,
    "popularity": 133
  },
  {
    "name": "Església de les Saleses",
    "address": "Passeig de Sant Joan 90",
    "lat": 41.3983803,
    "lng": 2.1710596,
    "popularity": 133
  },
  {
    "name": "Plaça de la Sardana",
    "address": "",
    "lat": 41.3678844,
    "lng": 2.1687592,
    "popularity": 132
  },
  {
    "name": "Palau Episcopal",
    "address": "Carrer del Bisbe",
    "lat": 41.3837419,
    "lng": 2.1753516,
    "popularity": 130
  },
  {
    "name": "Capella Reial de Santa Àgata",
    "address": "",
    "lat": 41.3842915,
    "lng": 2.1774565,
    "popularity": 128
  },
  {
    "name": "Casa Llotja de Mar",
    "address": "Passeig d'Isabel II 1",
    "lat": 41.38229270000001,
    "lng": 2.1825568,
    "popularity": 128
  },
  {
    "name": "Mosaïc de Miró",
    "address": "Plaça de la Boqueria",
    "lat": 41.3811579,
    "lng": 2.1732713,
    "popularity": 128
  },
  {
    "name": "Platja de Sant Miquel",
    "address": "",
    "lat": 41.37680659999999,
    "lng": 2.1912409,
    "popularity": 127
  },
  {
    "name": "Temple Romà d’August",
    "address": "Carrer del Paradis 10",
    "lat": 41.3833902,
    "lng": 2.1771641,
    "popularity": 122
  },
  {
    "name": "Centre d’Art Santa Mònica",
    "address": "La Rambla 7",
    "lat": 41.3772402,
    "lng": 2.1759316,
    "popularity": 122
  },
  {
    "name": "Palau Centelles",
    "address": "",
    "lat": 41.3815971,
    "lng": 2.176959,
    "popularity": 122
  },
  {
    "name": "Capella de Santa Llúcia",
    "address": "",
    "lat": 41.383888,
    "lng": 2.1757144,
    "popularity": 121
  },
  {
    "name": "Església de Sant Pere de les Puelles",
    "address": "Plaça de Sant Pere",
    "lat": 41.3895848,
    "lng": 2.1788207,
    "popularity": 120
  },
  {
    "name": "Centre de la Imatge",
    "address": "Palau de la Virreina",
    "lat": 41.38248840000001,
    "lng": 2.1717264,
    "popularity": 116
  },
  {
    "name": "Platjes",
    "address": "",
    "lat": 41.378626,
    "lng": 2.1925483,
    "popularity": 115
  },
  {
    "name": "Col·legi de Arquitectes",
    "address": "",
    "lat": 41.3844569,
    "lng": 2.1749944,
    "popularity": 114
  },
  {
    "name": "Mirador del Migdia",
    "address": "",
    "lat": 41.3593191,
    "lng": 2.160743,
    "popularity": 114
  },
  {
    "name": "Museu-Monestir de Pedralbes",
    "address": "Baixada del Monestir 9",
    "lat": 41.3953392,
    "lng": 2.1120701,
    "popularity": 110
  },
  {
    "name": "Fàbrica del Sol",
    "address": "Passeig de Salvat Papasseit 1",
    "lat": 41.3821736,
    "lng": 2.1918269,
    "popularity": 109
  },
  {
    "name": "Església de Sants Just i Pastor",
    "address": "Plaça de Sant Just",
    "lat": 41.382834,
    "lng": 2.178232,
    "popularity": 109
  },
  {
    "name": "Espai Santa Caterina",
    "address": "Carrer de Joan Capri",
    "lat": 41.3862056,
    "lng": 2.178438,
    "popularity": 109
  },
  {
    "name": "Capella d'en Marcús",
    "address": "Carrer de Montcada",
    "lat": 41.3857597,
    "lng": 2.1798561,
    "popularity": 108
  },
  {
    "name": "Museu de l’Eròtica",
    "address": "La Rambla 96",
    "lat": 41.3822323,
    "lng": 2.1725816,
    "popularity": 107
  },
  {
    "name": "Sinagoga Major",
    "address": "Carrer de Marlet 5",
    "lat": 41.382553,
    "lng": 2.175803,
    "popularity": 105
  },
  {
    "name": "Fundació Foto Colectania",
    "address": "Passeig de Picasso 14",
    "lat": 41.38763489999999,
    "lng": 2.1827391,
    "popularity": 105
  },
  {
    "name": "Col·legi de les Teresianes",
    "address": "Carrer de Ganduxer 85-105",
    "lat": 41.3997837,
    "lng": 2.1336828,
    "popularity": 104
  },
  {
    "name": "Monestir de Santa Isabel",
    "address": "Carrer de Rocaberti 12",
    "lat": 41.396923,
    "lng": 2.1256141,
    "popularity": 104
  },
  {
    "name": "Palau de Dalmases",
    "address": "Carrer de Montcada 20",
    "lat": 41.3845464,
    "lng": 2.181295,
    "popularity": 103
  },
  {
    "name": "Vil·la Joana",
    "address": "Carretera de l’Església 104",
    "lat": 41.419795,
    "lng": 2.09984,
    "popularity": 103
  },
  {
    "name": "Platja de l'Eixample",
    "address": "Carrer de Roger de Llúria 56",
    "lat": 41.3934048,
    "lng": 2.1697729,
    "popularity": 102
  },
  {
    "name": "Hash, Marihuana & Hemp Museum",
    "address": "Carrer Ample 35",
    "lat": 41.3808505,
    "lng": 2.1800701,
    "popularity": 102
  },
  {
    "name": "L’Anella Olímpica & Estadi Olímpic",
    "address": "Avinguda de l’Estadi",
    "lat": 41.36488,
    "lng": 2.15118,
    "popularity": 102
  },
  {
    "name": "Fundació Gaspar",
    "address": "Carrer de Montcada 25",
    "lat": 41.384674,
    "lng": 2.18155,
    "popularity": 101
  },
  {
    "name": "Casa de la Seda",
    "address": "Carrer de Sant Pere més Alt",
    "lat": 41.3870239,
    "lng": 2.1749814,
    "popularity": 101
  },
  {
    "name": "Born Centre de Cultura i Memòria",
    "address": "Plaça Comercial 12",
    "lat": 41.3858329,
    "lng": 2.1838226,
    "popularity": 101
  },
  {
    "name": "Edge Brewing",
    "address": "Carrer de Llull 62",
    "lat": 41.394228,
    "lng": 2.1931887,
    "popularity": 101
  },
  {
    "name": "Centre d’Interpretació del Call",
    "address": "Placeta de Manuel Ribé",
    "lat": 41.3825703,
    "lng": 2.1753483,
    "popularity": 101
  },
  {
    "name": "Església de la Puríssima Concepció I Assumpció de Nostra Senyora",
    "address": "Carrer de Roger de Llúria 70",
    "lat": 41.3948215,
    "lng": 2.1674742,
    "popularity": 100
  },
  {
    "name": "Fundació Fran Daurel",
    "address": "Avinguda Francesc Ferrer i Guàrdia 13",
    "lat": 41.3705084,
    "lng": 2.1494353,
    "popularity": 100
  },
  {
    "name": "MUHBA Refugi 307",
    "address": "Carrer Nou de la Rambla 169",
    "lat": 41.3714313,
    "lng": 2.166636,
    "popularity": 100
  },
  {
    "name": "Museu del Perfum",
    "address": "Passeig de Gràcia 39",
    "lat": 41.3913722,
    "lng": 2.165158,
    "popularity": 100
  },
  {
    "name": "Sala Fundación MAPFRE",
    "address": "Carrer de la Diputació 250",
    "lat": 41.3888724,
    "lng": 2.1652715,
    "popularity": 100
  },
  {
    "name": "Museu i Centre d’Estudis de l’Esport Dr Melcior Colet",
    "address": "Carrer de Buenos Aires 56-58",
    "lat": 41.3930881,
    "lng": 2.1481718,
    "popularity": 100
  },
  {
    "name": "Museu d’Història de la Immigració de Catalunya",
    "address": "Carretera de Mataró 124, Sant Adrià de Besòs",
    "lat": 41.42813839999999,
    "lng": 2.2123437,
    "popularity": 100
  },
  {
    "name": "Domus de Sant Honorat",
    "address": "Carrer de la Fruita 2",
    "lat": 41.3826436,
    "lng": 2.1759032,
    "popularity": 100
  },
  {
    "name": "Museu del Rei de la Magia",
    "address": "Carrer de les Jonqueres 15",
    "lat": 41.38848,
    "lng": 2.17388,
    "popularity": 100
  },
  {
    "name": "Parc d'Espanya Industrial",
    "address": "Carrer de Sant Antoni, Sants",
    "lat": 41.3774138,
    "lng": 2.1404825,
    "popularity": 100
  }
]
