[
  {
    "name": "Plaza de España",
    "address": "",
    "lat": 40.4233828,
    "lng": -3.7121647,
    "popularity": 10445
  },
  {
    "name": "Gran Vía",
    "address": "",
    "lat": 40.420179,
    "lng": -3.703927599999999,
    "popularity": 9958
  },
  {
    "name": "Palacio Real",
    "address": "Calle de Bailén",
    "lat": 40.417955,
    "lng": -3.714311999999999,
    "popularity": 9856
  },
  {
    "name": "Plaza Mayor",
    "address": "",
    "lat": 40.415511,
    "lng": -3.7074009,
    "popularity": 9580
  },
  {
    "name": "Parque del Oeste",
    "address": "Avenida del Arco de la Victoria",
    "lat": 40.4310526,
    "lng": -3.7264037,
    "popularity": 6319
  },
  {
    "name": "Casa de Campo",
    "address": "",
    "lat": 40.4263555,
    "lng": -3.7587457,
    "popularity": 4656
  },
  {
    "name": "Templo de Debod",
    "address": "Paseo del Pintor Rosales",
    "lat": 40.4240216,
    "lng": -3.717769499999999,
    "popularity": 3811
  },
  {
    "name": "Palacio de Cristal",
    "address": "Parque del Buen Retiro",
    "lat": 40.4136266,
    "lng": -3.6820397,
    "popularity": 3796
  },
  {
    "name": "Matadero Madrid",
    "address": "Paseo de la Chopera 14",
    "lat": 40.3916619,
    "lng": -3.6975885,
    "popularity": 3705
  },
  {
    "name": "Museo del Prado",
    "address": "Paseo del Prado",
    "lat": 40.4137818,
    "lng": -3.6921271,
    "popularity": 3186
  },
  {
    "name": "Real Jardín Botánico",
    "address": "Plaza de Bravo Murillo 2",
    "lat": 40.4111064,
    "lng": -3.6911267,
    "popularity": 3009
  },
  {
    "name": "Puerta de Alcalá",
    "address": "Plaza de la Independencia",
    "lat": 40.419992,
    "lng": -3.688737,
    "popularity": 2951
  },
  {
    "name": "El Rastro",
    "address": "Calle de la Ribera de los Curtidores",
    "lat": 40.40858170000001,
    "lng": -3.7069834,
    "popularity": 2469
  },
  {
    "name": "Zoo Aquarium de Madrid",
    "address": "Casa de Campo",
    "lat": 40.4089785,
    "lng": -3.7614606,
    "popularity": 2453
  },
  {
    "name": "Plaza de Oriente",
    "address": "Plaza de Oriente",
    "lat": 40.418412,
    "lng": -3.7121735,
    "popularity": 2369
  },
  {
    "name": "Parque del Buen Retiro",
    "address": "Plaza de la Independencia",
    "lat": 40.4152606,
    "lng": -3.6844995,
    "popularity": 2270
  },
  {
    "name": "Centro de Arte Reina Sofía",
    "address": "Calle de Santa Isabel 52",
    "lat": 40.4079123,
    "lng": -3.6945569,
    "popularity": 1901
  },
  {
    "name": "Caixa Forum",
    "address": "Paseo del Prado 36",
    "lat": 40.411112,
    "lng": -3.693571,
    "popularity": 1844
  },
  {
    "name": "Círculo de Bellas Artes",
    "address": "Calle de Alcalá 42",
    "lat": 40.4183042,
    "lng": -3.6965333,
    "popularity": 1660
  },
  {
    "name": "Museo Arqueológico Nacional",
    "address": "Calle de Serrano 13",
    "lat": 40.423553,
    "lng": -3.689402,
    "popularity": 1321
  },
  {
    "name": "Museo del Ferrocarril",
    "address": "Paseo de las Delicias 61",
    "lat": 40.39877269999999,
    "lng": -3.6915246,
    "popularity": 1298
  },
  {
    "name": "Teatro Real",
    "address": "Plaza de Oriente",
    "lat": 40.418299,
    "lng": -3.710578,
    "popularity": 1282
  },
  {
    "name": "Jardines de Sabatini",
    "address": "",
    "lat": 40.4202739,
    "lng": -3.7139672,
    "popularity": 1188
  },
  {
    "name": "Plaza de la Villa",
    "address": "Plaza de la Villa",
    "lat": 40.4153396,
    "lng": -3.7104142,
    "popularity": 1183
  },
  {
    "name": "Plaza de la Villa & Around",
    "address": "",
    "lat": 40.4153396,
    "lng": -3.7104142,
    "popularity": 1183
  },
  {
    "name": "Edificio Metrópolis",
    "address": "Gran Vía",
    "lat": 40.418826,
    "lng": -3.6972508,
    "popularity": 1089
  },
  {
    "name": "Museo de Historia",
    "address": "Calle de Fuencarral 78",
    "lat": 40.425798,
    "lng": -3.70072,
    "popularity": 1088
  },
  {
    "name": "Plaza de la Cibeles",
    "address": "",
    "lat": 40.4193371,
    "lng": -3.6930836,
    "popularity": 1021
  },
  {
    "name": "Museo Thyssen-Bornemisza",
    "address": "Paseo del Prado 8",
    "lat": 40.4160406,
    "lng": -3.6949254,
    "popularity": 1006
  },
  {
    "name": "Campo del Moro",
    "address": "Paseo de la Virgen del Puerto",
    "lat": 40.4186984,
    "lng": -3.7179746,
    "popularity": 929
  },
  {
    "name": "Palacio de Velázquez",
    "address": "Parque del Buen Retiro",
    "lat": 40.41514420000001,
    "lng": -3.6819116,
    "popularity": 915
  },
  {
    "name": "Plaza de la Puerta del Sol",
    "address": "",
    "lat": 40.4167234,
    "lng": -3.7033851,
    "popularity": 891
  },
  {
    "name": "La Casa Encendida",
    "address": "Ronda de Valencia 2",
    "lat": 40.4060771,
    "lng": -3.6999242,
    "popularity": 853
  },
  {
    "name": "Casa de Lope de Vega",
    "address": "Calle de Cervantes 11",
    "lat": 40.4143821,
    "lng": -3.6974563,
    "popularity": 826
  },
  {
    "name": "Plaza de Santa Ana",
    "address": "Plaza de Santa Ana",
    "lat": 40.414704,
    "lng": -3.7008313,
    "popularity": 815
  },
  {
    "name": "Monument to Alfonso XII",
    "address": "Parque del Buen Retiro",
    "lat": 40.4173198,
    "lng": -3.6830644,
    "popularity": 656
  },
  {
    "name": "Museo Sorolla",
    "address": "Paseo del General Martínez Campos 37",
    "lat": 40.4354363,
    "lng": -3.6925173,
    "popularity": 651
  },
  {
    "name": "Casa de Correos",
    "address": "",
    "lat": 40.41640599999999,
    "lng": -3.7038,
    "popularity": 633
  },
  {
    "name": "Faro de Madrid",
    "address": "Avenida de los Reyes Católicos",
    "lat": 40.43727,
    "lng": -3.721673999999999,
    "popularity": 621
  },
  {
    "name": "Congreso de los Diputados",
    "address": "Plaza de las Cortes",
    "lat": 40.4161478,
    "lng": -3.6966584,
    "popularity": 600
  },
  {
    "name": "Barrio de las Letras",
    "address": "",
    "lat": 40.413311,
    "lng": -3.697011,
    "popularity": 594
  },
  {
    "name": "Plaza de Neptuno",
    "address": "",
    "lat": 40.4151119,
    "lng": -3.6945008,
    "popularity": 575
  },
  {
    "name": "Basílica de San Francisco El Grande",
    "address": "Plaza de San Francisco 1",
    "lat": 40.41055120000001,
    "lng": -3.7145751,
    "popularity": 521
  },
  {
    "name": "Museo de América",
    "address": "Avenida de los Reyes Católicos 6",
    "lat": 40.4383189,
    "lng": -3.7219663,
    "popularity": 507
  },
  {
    "name": "Estación de Chamberí",
    "address": "cnr Calles de Santa Engracia & de Luchana",
    "lat": 40.4335621,
    "lng": -3.6984407,
    "popularity": 505
  },
  {
    "name": "Casa de la Villa",
    "address": "",
    "lat": 40.4151926,
    "lng": -3.7107758,
    "popularity": 489
  },
  {
    "name": "Teleférico",
    "address": "cnr Paseo del Pintor Rosales & Calle de Marqués de Urquijo",
    "lat": 40.419765,
    "lng": -3.748729,
    "popularity": 484
  },
  {
    "name": "Edificio Carrión",
    "address": "cnr Gran Vía & Calle de Jacometrezo",
    "lat": 40.4203139,
    "lng": -3.7063701,
    "popularity": 482
  },
  {
    "name": "La Rosaleda",
    "address": "Parque del Buen Retiro",
    "lat": 40.4105042,
    "lng": -3.6802234,
    "popularity": 470
  },
  {
    "name": "Museo Naval",
    "address": "Paseo del Prado 5",
    "lat": 40.4175299,
    "lng": -3.6926346,
    "popularity": 461
  },
  {
    "name": "Telefónica Building",
    "address": "Gran Vía",
    "lat": 40.420193,
    "lng": -3.701847,
    "popularity": 442
  },
  {
    "name": "Plaza de Olavide",
    "address": "",
    "lat": 40.4327877,
    "lng": -3.7015641,
    "popularity": 442
  },
  {
    "name": "El Ángel Caído",
    "address": "Parque del Buen Retiro",
    "lat": 40.40994500000001,
    "lng": -3.687473,
    "popularity": 428
  },
  {
    "name": "Real Academia de Bellas Artes de San Fernando",
    "address": "Calle de Alcalá 13",
    "lat": 40.4177897,
    "lng": -3.7007098,
    "popularity": 402
  },
  {
    "name": "Museo de Artes Decorativas",
    "address": "Calle de Montalbán 12",
    "lat": 40.4179119,
    "lng": -3.6898167,
    "popularity": 390
  },
  {
    "name": "Museo de Cerralbo",
    "address": "Calle de Ventura Rodríguez 17",
    "lat": 40.423764,
    "lng": -3.714541,
    "popularity": 368
  },
  {
    "name": "Iglesia de San Jerónimo El Real",
    "address": "Calle de Ruiz de Alarcón",
    "lat": 40.4145028,
    "lng": -3.6908903,
    "popularity": 359
  },
  {
    "name": "Parque de Atracciones",
    "address": "Casa de Campo",
    "lat": 40.413121,
    "lng": -3.75097,
    "popularity": 352
  },
  {
    "name": "Palacio de Linares & Casa de América",
    "address": "Plaza de la Cibeles 2",
    "lat": 40.419791,
    "lng": -3.692151,
    "popularity": 340
  },
  {
    "name": "Museo al Aire Libre",
    "address": "Paseo de la Castellana",
    "lat": 40.4333697,
    "lng": -3.6876406,
    "popularity": 335
  },
  {
    "name": "Museo de San Isidro",
    "address": "Plaza de San Andrés 2",
    "lat": 40.4120743,
    "lng": -3.7108361,
    "popularity": 331
  },
  {
    "name": "Iglesia de San Andrés",
    "address": "Plaza de San Andrés 1",
    "lat": 40.412017,
    "lng": -3.7114158,
    "popularity": 327
  },
  {
    "name": "La Morería",
    "address": "",
    "lat": 40.4127124,
    "lng": -3.7142733,
    "popularity": 303
  },
  {
    "name": "Sociedad General de Autores y Editores",
    "address": "Calle de Fernando VI 4",
    "lat": 40.4254774,
    "lng": -3.6966741,
    "popularity": 302
  },
  {
    "name": "Casa de Vacas",
    "address": "",
    "lat": 40.41917249999999,
    "lng": -3.684074099999999,
    "popularity": 299
  },
  {
    "name": "Antigua Estación de Atocha",
    "address": "Plaza del Emperador Carlos V",
    "lat": 40.4070519,
    "lng": -3.691349999999999,
    "popularity": 296
  },
  {
    "name": "Museo de Cera",
    "address": "Paseo de los Recoletos 41",
    "lat": 40.4249581,
    "lng": -3.6913352,
    "popularity": 292
  },
  {
    "name": "Museo del Romanticismo",
    "address": "Calle de San Mateo 13",
    "lat": 40.425889,
    "lng": -3.6987766,
    "popularity": 273
  },
  {
    "name": "Mirador de Madrid",
    "address": "8th fl, Palacio de Comunicaciones",
    "lat": 40.4875661,
    "lng": -3.654838299999999,
    "popularity": 263
  },
  {
    "name": "Plaza de la Paja",
    "address": "",
    "lat": 40.4128574,
    "lng": -3.7114761,
    "popularity": 262
  },
  {
    "name": "Catedral de Nuestra Señora de la Almudena",
    "address": "Calle de Bailén",
    "lat": 40.415651,
    "lng": -3.714552,
    "popularity": 250
  },
  {
    "name": "CentroCentro",
    "address": "Plaza de la Cibeles 1",
    "lat": 40.4189618,
    "lng": -3.6920553,
    "popularity": 247
  },
  {
    "name": "Iglesia de San Ginés",
    "address": "Calle del Arenal 13",
    "lat": 40.4172215,
    "lng": -3.7070218,
    "popularity": 245
  },
  {
    "name": "Bear Statue",
    "address": "",
    "lat": 40.4170253,
    "lng": -3.7026212,
    "popularity": 240
  },
  {
    "name": "Casón del Buen Retiro",
    "address": "Calle de Alfonso XII 28",
    "lat": 40.4152817,
    "lng": -3.6896006,
    "popularity": 237
  },
  {
    "name": "Capilla del Obispo",
    "address": "Plaza de la Paja",
    "lat": 40.4125035,
    "lng": -3.7115926,
    "popularity": 235
  },
  {
    "name": "Basílica de San Miguel",
    "address": "Calle de San Justo 4",
    "lat": 40.414254,
    "lng": -3.7097013,
    "popularity": 235
  },
  {
    "name": "Palacio del Duque de Uceda",
    "address": "Calle Mayor 79",
    "lat": 40.414959,
    "lng": -3.713036,
    "popularity": 231
  },
  {
    "name": "Museo Nacional de Antropología",
    "address": "Calle de Alfonso XII 68",
    "lat": 40.407891,
    "lng": -3.688882,
    "popularity": 225
  },
  {
    "name": "Palacio de Santa Cruz",
    "address": "Plaza de la Provincia",
    "lat": 40.4146173,
    "lng": -3.7059923,
    "popularity": 215
  },
  {
    "name": "Ermita de San Antonio de la Florida",
    "address": "Glorieta de San Antonio de la Florida 5",
    "lat": 40.4259208,
    "lng": -3.7259804,
    "popularity": 211
  },
  {
    "name": "Plaza de Lavapiés",
    "address": "",
    "lat": 40.4177999,
    "lng": -3.712250999999999,
    "popularity": 208
  },
  {
    "name": "Statue of Felipe IV",
    "address": "",
    "lat": 40.4183418,
    "lng": -3.7121865,
    "popularity": 207
  },
  {
    "name": "Museo Nacional de Ciencias Naturales",
    "address": "Calle de José Gutiérrez Abascal 2",
    "lat": 40.44044179999999,
    "lng": -3.689617199999999,
    "popularity": 204
  },
  {
    "name": "Museo Lázaro Galdiano",
    "address": "Calle de Serrano 122",
    "lat": 40.43691099999999,
    "lng": -3.685848,
    "popularity": 197
  },
  {
    "name": "Muralla Árabe",
    "address": "Cuesta de la Vega",
    "lat": 40.4148911,
    "lng": -3.7145386,
    "popularity": 192
  },
  {
    "name": "Convento de las Descalzas Reales",
    "address": "Plaza de las Descalzas 3",
    "lat": 40.4185562,
    "lng": -3.7060173,
    "popularity": 190
  },
  {
    "name": "Ermita de San Isidro",
    "address": "Paseo del Quince de Mayo 62",
    "lat": 40.4008394,
    "lng": -3.7280011,
    "popularity": 182
  },
  {
    "name": "Casa de Cisneros",
    "address": "",
    "lat": 40.4148669,
    "lng": -3.7104378,
    "popularity": 176
  },
  {
    "name": "Edificio Grassy",
    "address": "Gran Vía 1",
    "lat": 40.4190463,
    "lng": -3.6980245,
    "popularity": 170
  },
  {
    "name": "Plaza de Ramales",
    "address": "",
    "lat": 40.4169863,
    "lng": -3.711522,
    "popularity": 165
  },
  {
    "name": "Convento de la Encarnación",
    "address": "Plaza de la Encarnación 1",
    "lat": 40.4200462,
    "lng": -3.7115755,
    "popularity": 164
  },
  {
    "name": "Fundación Juan March",
    "address": "Calle de Castelló 77",
    "lat": 40.4312362,
    "lng": -3.6813966,
    "popularity": 160
  },
  {
    "name": "Jardín del Príncipe Anglona",
    "address": "Plaza de la Paja",
    "lat": 40.413523,
    "lng": -3.7114417,
    "popularity": 158
  },
  {
    "name": "Museo Municipal de Arte Contemporáneo",
    "address": "Calle del Conde Duque 9-11",
    "lat": 40.4267367,
    "lng": -3.7111614,
    "popularity": 157
  },
  {
    "name": "Iglesia de San Pedro El Viejo",
    "address": "Costanilla de San Pedro",
    "lat": 40.413228,
    "lng": -3.710349,
    "popularity": 155
  },
  {
    "name": "Iglesia del Sacramento",
    "address": "Calle del Sacramento 11",
    "lat": 40.4147721,
    "lng": -3.7122434,
    "popularity": 154
  },
  {
    "name": "Casa de los Lujanes",
    "address": "",
    "lat": 40.4152462,
    "lng": -3.7101528,
    "popularity": 149
  },
  {
    "name": "Biblioteca Nacional & Museo del Libro",
    "address": "Paseo de los Recoletos 20",
    "lat": 40.4237396,
    "lng": -3.6900934,
    "popularity": 149
  },
  {
    "name": "Puerta de los Jerónimos",
    "address": "Paseo del Prado",
    "lat": 40.4142654,
    "lng": -3.6918243,
    "popularity": 146
  },
  {
    "name": "La Corrala",
    "address": "cnr Calles de Mesón de Paredes & del Tribulete",
    "lat": 40.4088487,
    "lng": -3.708232499999999,
    "popularity": 145
  },
  {
    "name": "Palacio de Liria",
    "address": "Calle de la Princesa 20",
    "lat": 40.4275609,
    "lng": -3.7125336,
    "popularity": 139
  },
  {
    "name": "Carlos III Equestrian Statue",
    "address": "",
    "lat": 40.4170119,
    "lng": -3.7035446,
    "popularity": 138
  },
  {
    "name": "Palacio del Senado",
    "address": "",
    "lat": 40.420978,
    "lng": -3.7122167,
    "popularity": 137
  },
  {
    "name": "Jardines de Las Vistillas",
    "address": "",
    "lat": 40.4125939,
    "lng": -3.7154288,
    "popularity": 135
  },
  {
    "name": "Bosque del Recuerdo",
    "address": "Calle Alfonso XII",
    "lat": 40.4120836,
    "lng": -3.6871405,
    "popularity": 130
  },
  {
    "name": "Iglesia de Jesús de Medinaceli",
    "address": "Plaza de Jesús 2",
    "lat": 40.4142333,
    "lng": -3.6955206,
    "popularity": 123
  },
  {
    "name": "11 March 2004 Memorial",
    "address": "1st fl, Estación de Atocha",
    "lat": 40.4068802,
    "lng": -3.6888882,
    "popularity": 121
  },
  {
    "name": "Museo Taurino",
    "address": "Calle de Alcalá 237",
    "lat": 40.4329957,
    "lng": -3.6632793,
    "popularity": 120
  },
  {
    "name": "Instituto de San Isidro",
    "address": "Calle de Toledo 39",
    "lat": 40.412613,
    "lng": -3.707413,
    "popularity": 118
  },
  {
    "name": "Monumento al Descubrimiento",
    "address": "",
    "lat": 40.4247541,
    "lng": -3.688209099999999,
    "popularity": 118
  },
  {
    "name": "Calle de Cervantes 2",
    "address": "",
    "lat": 40.4143113,
    "lng": -3.6985378,
    "popularity": 118
  },
  {
    "name": "Convento de las Trinitarias",
    "address": "Calle de Lope de Vega 16",
    "lat": 40.413691,
    "lng": -3.6975602,
    "popularity": 117
  },
  {
    "name": "Galería Moriarty",
    "address": "Calle de Tamayo y Baus 6",
    "lat": 40.4216664,
    "lng": -3.6971649,
    "popularity": 117
  },
  {
    "name": "Puerta de Dante",
    "address": "Parque del Buen Retiro",
    "lat": 40.40959840000001,
    "lng": -3.7446647,
    "popularity": 116
  },
  {
    "name": "Antiguo Cuartel del Conde Duque",
    "address": "Calle del Conde Duque 9",
    "lat": 40.4266721,
    "lng": -3.7110923,
    "popularity": 114
  },
  {
    "name": "Cementerio de la Florida",
    "address": "Calle de Francisco Jacinto y Alcantara",
    "lat": 40.4270222,
    "lng": -3.7245181,
    "popularity": 113
  },
  {
    "name": "Iglesia de San Nicolás de los Servitas",
    "address": "Plaza de San Nicolás 6",
    "lat": 40.4157973,
    "lng": -3.7119399,
    "popularity": 112
  },
  {
    "name": "Casa de las Siete Chimeneas",
    "address": "Plaza del Rey",
    "lat": 40.4202074,
    "lng": -3.6964252,
    "popularity": 110
  },
  {
    "name": "Viaduct & Calle de Segovia",
    "address": "",
    "lat": 40.4141644,
    "lng": -3.7136092,
    "popularity": 110
  },
  {
    "name": "Warner Brothers Movie World",
    "address": "San Martín de la Vega",
    "lat": 40.2302989,
    "lng": -3.5933781,
    "popularity": 109
  },
  {
    "name": "Real Fábrica de Tapices",
    "address": "Calle de Fuenterrabía 2",
    "lat": 40.4060946,
    "lng": -3.6825091,
    "popularity": 109
  },
  {
    "name": "Plaza de Toros & Museo Taurino",
    "address": "Calle de Alcalá 237",
    "lat": 40.4329957,
    "lng": -3.6632793,
    "popularity": 106
  },
  {
    "name": "Palacio Buenavista",
    "address": "Plaza de la Cibeles",
    "lat": 40.4210641,
    "lng": -3.6945819,
    "popularity": 105
  },
  {
    "name": "Casa Museo de Ratón Perez",
    "address": "1st fl, Calle de Arenal 8",
    "lat": 40.4171846,
    "lng": -3.705429999999999,
    "popularity": 103
  },
  {
    "name": "Fuente Egipcia",
    "address": "Parque del Buen Retiro",
    "lat": 40.4313286,
    "lng": -3.6271201,
    "popularity": 102
  },
  {
    "name": "Ateneo Científico, Literario y Artístico de Madrid",
    "address": "Calle del Prado 21",
    "lat": 40.415082,
    "lng": -3.6982123,
    "popularity": 102
  },
  {
    "name": "Escuela Superior de Música Reina Sofía",
    "address": "Calle de Requena 1",
    "lat": 40.4170656,
    "lng": -3.7122961,
    "popularity": 101
  },
  {
    "name": "Basílica de Nuestra Señora del Buen Consejo",
    "address": "Calle de Toledo 37",
    "lat": 40.4126765,
    "lng": -3.7069721,
    "popularity": 100
  },
  {
    "name": "Convento del Corpus Cristi",
    "address": "Plaza del Conde de Miranda",
    "lat": 40.4147,
    "lng": -3.710049999999999,
    "popularity": 100
  },
  {
    "name": "Statue of Cristobel Colón",
    "address": "",
    "lat": 40.4249516,
    "lng": -3.6898599,
    "popularity": 100
  },
  {
    "name": "Museo Tifológico",
    "address": "Calle de la Coruña 18",
    "lat": 40.4552717,
    "lng": -3.7002088,
    "popularity": 100
  }
]
