[
  {
    "name": "Manhattan Beach",
    "address": "",
    "lat": 33.8847361,
    "lng": -118.4109089,
    "popularity": 22758
  },
  {
    "name": "LA Live",
    "address": "800 W Olympic Blvd",
    "lat": 34.0447628,
    "lng": -118.2654289,
    "popularity": 17544
  },
  {
    "name": "Universal Studios Hollywood",
    "address": "100 Universal City Plaza",
    "lat": 34.13811680000001,
    "lng": -118.3533783,
    "popularity": 16986
  },
  {
    "name": "Griffith Park",
    "address": "4730 Crystal Springs Dr",
    "lat": 34.13655440000001,
    "lng": -118.2942,
    "popularity": 15023
  },
  {
    "name": "Getty Center",
    "address": "1200 Getty Center Dr",
    "lat": 34.07803579999999,
    "lng": -118.4740954,
    "popularity": 14584
  },
  {
    "name": "Santa Monica Pier",
    "address": "",
    "lat": 34.0098476,
    "lng": -118.4964628,
    "popularity": 13856
  },
  {
    "name": "Griffith Observatory",
    "address": "2800 E Observatory Rd",
    "lat": 34.1184341,
    "lng": -118.3003935,
    "popularity": 12808
  },
  {
    "name": "Hollywood Sign",
    "address": "",
    "lat": 34.1341151,
    "lng": -118.3215482,
    "popularity": 11923
  },
  {
    "name": "Los Angeles Theatre",
    "address": "615 S Broadway",
    "lat": 34.046444,
    "lng": -118.2526466,
    "popularity": 11388
  },
  {
    "name": "Getty Villa",
    "address": "17985 Pacific Coast Hwy",
    "lat": 34.0458857,
    "lng": -118.5648608,
    "popularity": 10571
  },
  {
    "name": "Chinatown",
    "address": "",
    "lat": 34.0623339,
    "lng": -118.2383309,
    "popularity": 8588
  },
  {
    "name": "Union Station",
    "address": "800 N Alameda St",
    "lat": 34.056219,
    "lng": -118.2365021,
    "popularity": 7784
  },
  {
    "name": "Queen Mary",
    "address": "1126 Queens Hwy",
    "lat": 33.7526356,
    "lng": -118.1903235,
    "popularity": 7772
  },
  {
    "name": "Hermosa Beach",
    "address": "",
    "lat": 33.8622366,
    "lng": -118.3995194,
    "popularity": 7038
  },
  {
    "name": "Dodger Stadium",
    "address": "1000 Elysian Park Ave",
    "lat": 34.073851,
    "lng": -118.2399583,
    "popularity": 6845
  },
  {
    "name": "Walt Disney Concert Hall",
    "address": "111 S Grand Ave",
    "lat": 34.0553454,
    "lng": -118.249845,
    "popularity": 6113
  },
  {
    "name": "City Hall",
    "address": "200 N Spring St",
    "lat": 34.0537136,
    "lng": -118.2426533,
    "popularity": 5234
  },
  {
    "name": "Aquarium of the Pacific",
    "address": "100 Aquarium Way",
    "lat": 33.76214880000001,
    "lng": -118.1969808,
    "popularity": 5210
  },
  {
    "name": "Rodeo Drive",
    "address": "",
    "lat": 34.0565176,
    "lng": -118.3997438,
    "popularity": 4976
  },
  {
    "name": "Hollywood Walk of Fame",
    "address": "Hollywood Blvd",
    "lat": 34.0985259,
    "lng": -118.3255647,
    "popularity": 4748
  },
  {
    "name": "Petersen Automotive Museum",
    "address": "6060 Wilshire Blvd",
    "lat": 34.062348,
    "lng": -118.3611336,
    "popularity": 4690
  },
  {
    "name": "Los Angeles County Museum of Art",
    "address": "5905 Wilshire Blvd",
    "lat": 34.0639323,
    "lng": -118.3592293,
    "popularity": 4329
  },
  {
    "name": "University of California, Los Angeles",
    "address": "",
    "lat": 34.068921,
    "lng": -118.4451811,
    "popularity": 3774
  },
  {
    "name": "Hammer Museum",
    "address": "10899 Wilshire Blvd",
    "lat": 34.0596461,
    "lng": -118.4437654,
    "popularity": 3750
  },
  {
    "name": "Exposition Park",
    "address": "700 Exposition Park Dr",
    "lat": 34.0171157,
    "lng": -118.2861256,
    "popularity": 3719
  },
  {
    "name": "Grove",
    "address": "189 The Grove Dr",
    "lat": 34.072164,
    "lng": -118.358381,
    "popularity": 3631
  },
  {
    "name": "California Science Center",
    "address": "700 Exposition Park Dr",
    "lat": 34.0158653,
    "lng": -118.2861082,
    "popularity": 3618
  },
  {
    "name": "Barnsdall Art Park",
    "address": "4800 Hollywood Blvd",
    "lat": 34.100365,
    "lng": -118.294328,
    "popularity": 3601
  },
  {
    "name": "Olvera Street",
    "address": "",
    "lat": 34.0575983,
    "lng": -118.237913,
    "popularity": 3399
  },
  {
    "name": "Descanso Gardens",
    "address": "1418 Descanso Dr",
    "lat": 34.201266,
    "lng": -118.2098,
    "popularity": 2939
  },
  {
    "name": "California Plaza",
    "address": "350 S Grand Ave",
    "lat": 34.0525773,
    "lng": -118.2505142,
    "popularity": 2820
  },
  {
    "name": "Pershing Square",
    "address": "532 S Olive St",
    "lat": 34.048569,
    "lng": -118.2528917,
    "popularity": 2495
  },
  {
    "name": "Grand Park",
    "address": "227 N Spring St",
    "lat": 34.0563289,
    "lng": -118.2467713,
    "popularity": 2477
  },
  {
    "name": "Hollywood Forever Cemetery",
    "address": "6000 Santa Monica Blvd",
    "lat": 34.0904405,
    "lng": -118.3205651,
    "popularity": 2420
  },
  {
    "name": "Grauman's Chinese Theatre",
    "address": "6925 Hollywood Blvd",
    "lat": 34.1020231,
    "lng": -118.3409712,
    "popularity": 2358
  },
  {
    "name": "Natural History Museum of Los Angeles",
    "address": "900 Exposition Blvd",
    "lat": 34.0169567,
    "lng": -118.2887703,
    "popularity": 2183
  },
  {
    "name": "Hollywood Museum",
    "address": "1660 N Highland Ave",
    "lat": 34.101082,
    "lng": -118.3383066,
    "popularity": 2081
  },
  {
    "name": "University of Southern California",
    "address": "cnr Exposition Blvd & Figueroa St",
    "lat": 34.0223519,
    "lng": -118.285117,
    "popularity": 2078
  },
  {
    "name": "South Coast Botanic Garden",
    "address": "26300 Crenshaw Blvd",
    "lat": 33.7838135,
    "lng": -118.3479082,
    "popularity": 2050
  },
  {
    "name": "USS Iowa",
    "address": "250 S Harbor Blvd",
    "lat": 33.7422615,
    "lng": -118.2772823,
    "popularity": 1988
  },
  {
    "name": "LA Plaza",
    "address": "501 N Main St",
    "lat": 34.0563788,
    "lng": -118.2397245,
    "popularity": 1964
  },
  {
    "name": "Venice Canals",
    "address": "",
    "lat": 33.9836876,
    "lng": -118.4662628,
    "popularity": 1937
  },
  {
    "name": "Los Angeles Memorial Coliseum",
    "address": "3911 S Figueroa St",
    "lat": 34.0140526,
    "lng": -118.2878754,
    "popularity": 1915
  },
  {
    "name": "Travel Town",
    "address": "5200 W Zoo Dr",
    "lat": 34.1546781,
    "lng": -118.3074043,
    "popularity": 1872
  },
  {
    "name": "Ronald Reagan Presidential Library",
    "address": "40 Presidential Dr",
    "lat": 34.2598671,
    "lng": -118.8198082,
    "popularity": 1858
  },
  {
    "name": "Zuma Beach",
    "address": "30,000 Pacific Coast Hwy",
    "lat": 34.0218023,
    "lng": -118.8311897,
    "popularity": 1844
  },
  {
    "name": "Hollywood & Vine",
    "address": "",
    "lat": 34.1016345,
    "lng": -118.3267051,
    "popularity": 1781
  },
  {
    "name": "Venice Boardwalk",
    "address": "Venice Pier to Rose Ave",
    "lat": 33.9870046,
    "lng": -118.473761,
    "popularity": 1758
  },
  {
    "name": "Santa Monica State Beach",
    "address": "",
    "lat": 34.0125157,
    "lng": -118.4999403,
    "popularity": 1745
  },
  {
    "name": "Beverly Hills Hotel",
    "address": "9641 Sunset Blvd",
    "lat": 34.08140300000001,
    "lng": -118.413198,
    "popularity": 1727
  },
  {
    "name": "El Capitan Theatre",
    "address": "6838 Hollywood Blvd",
    "lat": 34.101195,
    "lng": -118.33978,
    "popularity": 1707
  },
  {
    "name": "Redondo Beach Pier",
    "address": "100 W Torrance Blvd",
    "lat": 33.8398787,
    "lng": -118.3910929,
    "popularity": 1649
  },
  {
    "name": "Wayfarers Chapel",
    "address": "5755 Palos Verdes Dr S",
    "lat": 33.7436775,
    "lng": -118.3774217,
    "popularity": 1625
  },
  {
    "name": "San Gabriel Mission",
    "address": "428 S Mission Dr",
    "lat": 34.09672010000001,
    "lng": -118.1068683,
    "popularity": 1543
  },
  {
    "name": "Watts Towers",
    "address": "1761-1765 E 107th St",
    "lat": 33.9387238,
    "lng": -118.2410819,
    "popularity": 1476
  },
  {
    "name": "Page Museum & La Brea Tar Pits",
    "address": "5801 Wilshire Blvd",
    "lat": 34.0638079,
    "lng": -118.3554338,
    "popularity": 1447
  },
  {
    "name": "Norton Simon Museum",
    "address": "411 W Colorado Blvd",
    "lat": 34.1463464,
    "lng": -118.1592625,
    "popularity": 1381
  },
  {
    "name": "Pasadena City Hall",
    "address": "100 N Garfield Ave",
    "lat": 34.14764660000001,
    "lng": -118.1438278,
    "popularity": 1358
  },
  {
    "name": "Sunset Strip",
    "address": "Sunset Blvd",
    "lat": 34.0912865,
    "lng": -118.3794303,
    "popularity": 1356
  },
  {
    "name": "Broad",
    "address": "221 S Grand Ave",
    "lat": 34.0544694,
    "lng": -118.2505582,
    "popularity": 1251
  },
  {
    "name": "Bradbury Building",
    "address": "304 S Broadway",
    "lat": 34.050544,
    "lng": -118.247843,
    "popularity": 1213
  },
  {
    "name": "Grand Central Market",
    "address": "317 S Broadway",
    "lat": 34.0508806,
    "lng": -118.2490251,
    "popularity": 1167
  },
  {
    "name": "Los Angeles County Arboretum & Botanic Garden",
    "address": "301 N Baldwin Ave",
    "lat": 34.1448279,
    "lng": -118.0508813,
    "popularity": 1109
  },
  {
    "name": "Pacific Park",
    "address": "380 Santa Monica Pier",
    "lat": 34.008576,
    "lng": -118.498101,
    "popularity": 1107
  },
  {
    "name": "Rose Bowl Stadium",
    "address": "1001 Rose Bowl Dr",
    "lat": 34.1613284,
    "lng": -118.1676462,
    "popularity": 1076
  },
  {
    "name": "Japanese American National Museum",
    "address": "100 N Central Ave",
    "lat": 34.0496831,
    "lng": -118.2385781,
    "popularity": 985
  },
  {
    "name": "MacArthur Park",
    "address": "cnr Wilshire Blvd & Alvarado St",
    "lat": 34.0584285,
    "lng": -118.2794275,
    "popularity": 972
  },
  {
    "name": "Ballona Wetlands",
    "address": "cnr Lincoln & Jefferson Blvds",
    "lat": 33.9655675,
    "lng": -118.4450779,
    "popularity": 966
  },
  {
    "name": "Hollywood Wax Museum",
    "address": "6767 Hollywood Blvd",
    "lat": 34.10173109999999,
    "lng": -118.3381527,
    "popularity": 943
  },
  {
    "name": "Los Angeles Live Steamers",
    "address": "5202 Zoo Dr",
    "lat": 34.1548384,
    "lng": -118.3019838,
    "popularity": 921
  },
  {
    "name": "Old Los Angeles Zoo",
    "address": "Griffith Park Dr",
    "lat": 34.133849,
    "lng": -118.2893765,
    "popularity": 896
  },
  {
    "name": "Echo Park Lake",
    "address": "751 Echo Park Ave",
    "lat": 34.0728733,
    "lng": -118.2605195,
    "popularity": 894
  },
  {
    "name": "Gamble House",
    "address": "4 Westmoreland Pl",
    "lat": 34.1516331,
    "lng": -118.1609434,
    "popularity": 850
  },
  {
    "name": "Korean Friendship Bell",
    "address": "3601 S Gaffey St",
    "lat": 33.709731,
    "lng": -118.293802,
    "popularity": 842
  },
  {
    "name": "Orpheum Theatre",
    "address": "842 S Broadway",
    "lat": 34.042611,
    "lng": -118.255296,
    "popularity": 826
  },
  {
    "name": "Huntington Library, Art Collections & Botanical Gardens",
    "address": "1151 Oxford Rd",
    "lat": 34.1290452,
    "lng": -118.1145242,
    "popularity": 821
  },
  {
    "name": "Palace Theatre",
    "address": "630 S Broadway",
    "lat": 34.0457263,
    "lng": -118.252351,
    "popularity": 796
  },
  {
    "name": "Green Street",
    "address": "Bicknell St",
    "lat": 34.13159530000001,
    "lng": -118.24188,
    "popularity": 775
  },
  {
    "name": "El Matador State Beach",
    "address": "32215 Pacific Coast Hwy",
    "lat": 34.0394151,
    "lng": -118.875812,
    "popularity": 764
  },
  {
    "name": "Hollyhock House",
    "address": "Barnsdall Art Park, 4800 Hollywood Blvd",
    "lat": 34.1001083,
    "lng": -118.2942856,
    "popularity": 759
  },
  {
    "name": "Dolby Theatre",
    "address": "6801 Hollywood Blvd",
    "lat": 34.1026919,
    "lng": -118.3404156,
    "popularity": 710
  },
  {
    "name": "Malibu Pier",
    "address": "23,000 Pacific Coast Hwy",
    "lat": 34.0356307,
    "lng": -118.6756384,
    "popularity": 706
  },
  {
    "name": "IAm8Bit",
    "address": "2147 W Sunset Blvd",
    "lat": 34.077578,
    "lng": -118.2649521,
    "popularity": 687
  },
  {
    "name": "Palisades Park",
    "address": "Ocean Ave between Colorado Ave & San Vicente Blvd",
    "lat": 34.023018,
    "lng": -118.5094786,
    "popularity": 672
  },
  {
    "name": "Dorothy Chandler Pavilion",
    "address": "135 N Grand Ave",
    "lat": 34.0565898,
    "lng": -118.2488962,
    "popularity": 658
  },
  {
    "name": "US Bank Tower",
    "address": "633 W 5th St",
    "lat": 34.0510801,
    "lng": -118.2543526,
    "popularity": 648
  },
  {
    "name": "Los Angeles Maritime Museum & Around",
    "address": "Berth 84",
    "lat": 33.7387438,
    "lng": -118.2788529,
    "popularity": 637
  },
  {
    "name": "Abalone Cove Shoreline Park",
    "address": "Palos Verdes Dr",
    "lat": 33.742067,
    "lng": -118.377508,
    "popularity": 636
  },
  {
    "name": "State Theatre",
    "address": "703 S Broadway",
    "lat": 34.046444,
    "lng": -118.2526466,
    "popularity": 631
  },
  {
    "name": "MOCA Geffen",
    "address": "152 N Central Ave",
    "lat": 34.0504802,
    "lng": -118.2385408,
    "popularity": 628
  },
  {
    "name": "Rose Garden",
    "address": "701 State Dr",
    "lat": 34.0173894,
    "lng": -118.2859161,
    "popularity": 626
  },
  {
    "name": "Redondo & Torrance Beaches",
    "address": "",
    "lat": 33.8132946,
    "lng": -118.3896552,
    "popularity": 611
  },
  {
    "name": "Jewelry District",
    "address": "",
    "lat": 34.0475484,
    "lng": -118.2537569,
    "popularity": 608
  },
  {
    "name": "Jet Propulsion Laboratory",
    "address": "4800 Oak Grove Dr",
    "lat": 34.2013081,
    "lng": -118.1713944,
    "popularity": 602
  },
  {
    "name": "Pantages Theatre",
    "address": "6233 Hollywood Blvd",
    "lat": 34.1020096,
    "lng": -118.3257889,
    "popularity": 599
  },
  {
    "name": "Old Plaza",
    "address": "Olvera St",
    "lat": 34.0565439,
    "lng": -118.2387424,
    "popularity": 573
  },
  {
    "name": "Point Fermin Park & Around",
    "address": "",
    "lat": 33.7063067,
    "lng": -118.2933348,
    "popularity": 560
  },
  {
    "name": "Leimert Park",
    "address": "",
    "lat": 34.0106702,
    "lng": -118.3234759,
    "popularity": 560
  },
  {
    "name": "Schindler House",
    "address": "835 N Kings Rd",
    "lat": 34.0864061,
    "lng": -118.3721582,
    "popularity": 548
  },
  {
    "name": "Point Vicente Lighthouse",
    "address": "31,550 Palos Verdes Dr W",
    "lat": 33.7422359,
    "lng": -118.4099042,
    "popularity": 544
  },
  {
    "name": "Art Center College of Design",
    "address": "1700 Lida St",
    "lat": 34.1688713,
    "lng": -118.1851569,
    "popularity": 535
  },
  {
    "name": "Egyptian Theatre",
    "address": "6712 Hollywood Blvd",
    "lat": 34.1014167,
    "lng": -118.3365429,
    "popularity": 523
  },
  {
    "name": "Dockweiler State Beach",
    "address": "12,000 Vista Del Mar",
    "lat": 33.9308398,
    "lng": -118.4350615,
    "popularity": 518
  },
  {
    "name": "Angeles National Forest",
    "address": "",
    "lat": 34.317152,
    "lng": -118.005925,
    "popularity": 516
  },
  {
    "name": "Pacific Design Center",
    "address": "8687 Melrose Ave",
    "lat": 34.082185,
    "lng": -118.3820455,
    "popularity": 513
  },
  {
    "name": "Paley Center for Media",
    "address": "465 N Beverly Dr",
    "lat": 34.070926,
    "lng": -118.403387,
    "popularity": 508
  },
  {
    "name": "California Institute of Technology",
    "address": "551 S Hill Ave",
    "lat": 34.1376576,
    "lng": -118.125269,
    "popularity": 508
  },
  {
    "name": "Pico House",
    "address": "430 N Main St",
    "lat": 34.056076,
    "lng": -118.239528,
    "popularity": 499
  },
  {
    "name": "Museum of Jurassic Technology",
    "address": "9341 Venice Blvd",
    "lat": 34.025884,
    "lng": -118.395063,
    "popularity": 471
  },
  {
    "name": "Cabrillo Marine Aquarium",
    "address": "3720 Stephen M White Dr",
    "lat": 33.7109884,
    "lng": -118.2852845,
    "popularity": 462
  },
  {
    "name": "Pasadena Museum of California Art",
    "address": "490 E Union St",
    "lat": 34.1468743,
    "lng": -118.1401975,
    "popularity": 458
  },
  {
    "name": "Mission San Fernando Rey de España",
    "address": "15,151 San Fernando Mission Blvd",
    "lat": 34.2739566,
    "lng": -118.4619882,
    "popularity": 444
  },
  {
    "name": "Mariachi Plaza",
    "address": "cnr Boyle Ave & 1st St",
    "lat": 34.0473946,
    "lng": -118.2188538,
    "popularity": 438
  },
  {
    "name": "Leo Carrillo State Park",
    "address": "35000 W Pacific Coast Hwy",
    "lat": 34.0465717,
    "lng": -118.9337168,
    "popularity": 436
  },
  {
    "name": "La Placita",
    "address": "535 N Main St",
    "lat": 34.0570701,
    "lng": -118.239577,
    "popularity": 425
  },
  {
    "name": "Point Fermin Lighthouse",
    "address": "Point Fermin Park, 807 W Paseo Del Mar",
    "lat": 33.7054046,
    "lng": -118.2936407,
    "popularity": 418
  },
  {
    "name": "United Artists Theatre",
    "address": "929 S Broadway",
    "lat": 34.0418769,
    "lng": -118.2570341,
    "popularity": 413
  },
  {
    "name": "Japanese Village Plaza",
    "address": "",
    "lat": 34.0488884,
    "lng": -118.2404842,
    "popularity": 392
  },
  {
    "name": "Tower Theatre",
    "address": "802 S Broadway",
    "lat": 34.0436106,
    "lng": -118.2546786,
    "popularity": 390
  },
  {
    "name": "Avila Adobe",
    "address": "10 Olvera St",
    "lat": 34.057251,
    "lng": -118.237977,
    "popularity": 389
  },
  {
    "name": "White Point Nature Preserve",
    "address": "1600 W Paseo del Mar",
    "lat": 33.717844,
    "lng": -118.3155101,
    "popularity": 384
  },
  {
    "name": "Million Dollar Theatre",
    "address": "307 S Broadway",
    "lat": 34.050838,
    "lng": -118.2483286,
    "popularity": 379
  },
  {
    "name": "El Pueblo de Los Ángeles Historical Monument",
    "address": "Olvera St",
    "lat": 34.0565439,
    "lng": -118.2387424,
    "popularity": 371
  },
  {
    "name": "Los Angeles Zoo & Botanical Gardens",
    "address": "5333 Zoo Dr",
    "lat": 34.1490401,
    "lng": -118.2840484,
    "popularity": 369
  },
  {
    "name": "Malibu Colony",
    "address": "",
    "lat": 34.032494,
    "lng": -118.688628,
    "popularity": 364
  },
  {
    "name": "Grammy Museum",
    "address": "800 W Olympic Blvd",
    "lat": 34.0449079,
    "lng": -118.2647248,
    "popularity": 364
  },
  {
    "name": "Venice Beach Art Walls",
    "address": "1800 Ocean Front Walk",
    "lat": 33.9864365,
    "lng": -118.4748942,
    "popularity": 362
  },
  {
    "name": "Retro Row",
    "address": "4th St btwn Junipero St & Cherry Ave",
    "lat": 33.7700504,
    "lng": -118.1937395,
    "popularity": 354
  },
  {
    "name": "Veterans Park",
    "address": "309 Esplanade",
    "lat": 34.0532069,
    "lng": -118.4597525,
    "popularity": 354
  },
  {
    "name": "Malibu Lagoon State Beach",
    "address": "3999 Cross Creek Rd",
    "lat": 34.033577,
    "lng": -118.6804371,
    "popularity": 353
  },
  {
    "name": "Adamson House",
    "address": "23200 Pacific Coast Hwy",
    "lat": 34.0345947,
    "lng": -118.6807463,
    "popularity": 342
  },
  {
    "name": "Point Vicente Interpretive Center",
    "address": "31,501 Palos Verdes Dr W",
    "lat": 33.7447747,
    "lng": -118.4114269,
    "popularity": 332
  },
  {
    "name": "Original Farmers Market",
    "address": "6333 W 3rd St",
    "lat": 34.0717589,
    "lng": -118.3608171,
    "popularity": 329
  },
  {
    "name": "Westwood Village Memorial Park Cemetery",
    "address": "1218 Glendon Ave",
    "lat": 34.0583207,
    "lng": -118.4413183,
    "popularity": 324
  },
  {
    "name": "Via Rodeo",
    "address": "cnr Rodeo Dr & Wilshire Blvd",
    "lat": 34.021507,
    "lng": -118.3452041,
    "popularity": 320
  },
  {
    "name": "Heritage Classics",
    "address": "8980 Santa Monica Blvd",
    "lat": 34.0829615,
    "lng": -118.3865083,
    "popularity": 316
  },
  {
    "name": "Greystone Mansion & Park",
    "address": "905 Loma Vista Dr",
    "lat": 34.0922819,
    "lng": -118.4012377,
    "popularity": 307
  },
  {
    "name": "SS Lane Victory",
    "address": "Berth 94, 3600 Miner St",
    "lat": 33.7170993,
    "lng": -118.2730851,
    "popularity": 306
  },
  {
    "name": "Madame Tussaud’s",
    "address": "6933 Hollywood Blvd",
    "lat": 34.1019097,
    "lng": -118.3415296,
    "popularity": 305
  },
  {
    "name": "Long Beach Museum of Art",
    "address": "2300 E Ocean Blvd",
    "lat": 33.7634653,
    "lng": -118.164792,
    "popularity": 304
  },
  {
    "name": "Will Rogers State Historic Park",
    "address": "1501 Will Rogers State Park Rd",
    "lat": 34.054979,
    "lng": -118.5125616,
    "popularity": 301
  },
  {
    "name": "Skirball Cultural Center",
    "address": "2701 N Sepulveda Blvd",
    "lat": 34.1248159,
    "lng": -118.4789242,
    "popularity": 299
  },
  {
    "name": "Kidspace Children's Museum",
    "address": "480 N Arroyo Blvd",
    "lat": 34.1553781,
    "lng": -118.1640697,
    "popularity": 299
  },
  {
    "name": "Eastern Columbia Building",
    "address": "849 S Broadway",
    "lat": 34.0428367,
    "lng": -118.2562712,
    "popularity": 298
  },
  {
    "name": "Neutra VDL House",
    "address": "2300 Silver Lake Blvd",
    "lat": 34.0984359,
    "lng": -118.260451,
    "popularity": 297
  },
  {
    "name": "California African American Museum",
    "address": "600 State Dr",
    "lat": 34.0158918,
    "lng": -118.2834514,
    "popularity": 296
  },
  {
    "name": "Fisherman’s Village",
    "address": "13,755 Fiji Way",
    "lat": 33.9725614,
    "lng": -118.4462468,
    "popularity": 294
  },
  {
    "name": "Plaza Firehouse",
    "address": "134 Paseo de la Plaza",
    "lat": 34.0560171,
    "lng": -118.2387887,
    "popularity": 281
  },
  {
    "name": "Carousel",
    "address": "Santa Monica Pier",
    "lat": 34.1013361,
    "lng": -118.3011248,
    "popularity": 280
  },
  {
    "name": "Starbucks",
    "address": "859 N Highland Ave",
    "lat": 34.019273,
    "lng": -118.334759,
    "popularity": 278
  },
  {
    "name": "Caltrans District 7 Headquarters",
    "address": "100 S Main St",
    "lat": 34.0511451,
    "lng": -118.2435949,
    "popularity": 276
  },
  {
    "name": "NoHo Arts District",
    "address": "",
    "lat": 34.164998,
    "lng": -118.3747024,
    "popularity": 273
  },
  {
    "name": "John Ferraro Building",
    "address": "111 N Hope St",
    "lat": 34.0580643,
    "lng": -118.2495378,
    "popularity": 270
  },
  {
    "name": "Mt Wilson Observatory",
    "address": "Red Box Rd",
    "lat": 34.2252867,
    "lng": -118.0572966,
    "popularity": 265
  },
  {
    "name": "Bullocks Wilshire",
    "address": "3050 Wilshire Blvd",
    "lat": 34.0613992,
    "lng": -118.2884225,
    "popularity": 257
  },
  {
    "name": "Southern California Institute of Architecture",
    "address": "960 E 3rd St",
    "lat": 34.0443146,
    "lng": -118.2328416,
    "popularity": 254
  },
  {
    "name": "One Archives",
    "address": "909 W Adams Blvd",
    "lat": 34.0310318,
    "lng": -118.2815656,
    "popularity": 251
  },
  {
    "name": "Santa Monica Pier Aquarium",
    "address": "1600 Ocean Front Walk",
    "lat": 34.010405,
    "lng": -118.4960197,
    "popularity": 247
  },
  {
    "name": "Whitley Heights",
    "address": "",
    "lat": 34.1058582,
    "lng": -118.3333648,
    "popularity": 243
  },
  {
    "name": "Capitol Records Tower",
    "address": "1750 Vine St",
    "lat": 34.103244,
    "lng": -118.3263942,
    "popularity": 242
  },
  {
    "name": "Powell Library",
    "address": "UCLA",
    "lat": 34.07161260000001,
    "lng": -118.4421809,
    "popularity": 238
  },
  {
    "name": "Autry Museum of the American West",
    "address": "4700 Western Heritage Way",
    "lat": 34.14862,
    "lng": -118.281213,
    "popularity": 238
  },
  {
    "name": "Griffith Park Merry-Go-Round",
    "address": "Griffith Park",
    "lat": 34.1326929,
    "lng": -118.2837747,
    "popularity": 236
  },
  {
    "name": "Self Realization Fellowship",
    "address": "3880 San Rafael Ave",
    "lat": 34.1017605,
    "lng": -118.2160665,
    "popularity": 234
  },
  {
    "name": "Self-Realization Fellowship Lake Shrine",
    "address": "17,190 Sunset Blvd",
    "lat": 34.0433837,
    "lng": -118.5530105,
    "popularity": 219
  },
  {
    "name": "Hayden Tract",
    "address": "3500 block of Hayden Ave",
    "lat": 34.02497,
    "lng": -118.3797955,
    "popularity": 219
  },
  {
    "name": "Rialto Theatre",
    "address": "1023 Fair Oaks Ave",
    "lat": 34.1139989,
    "lng": -118.1505842,
    "popularity": 216
  },
  {
    "name": "Catalina Island Museum",
    "address": "217 Metropole Ave",
    "lat": 33.3433168,
    "lng": -118.3278571,
    "popularity": 214
  },
  {
    "name": "Flower Market",
    "address": "Wall St",
    "lat": 34.0402911,
    "lng": -118.2494595,
    "popularity": 214
  },
  {
    "name": "Museum of Latin American Art",
    "address": "628 Alamitos Ave",
    "lat": 33.774467,
    "lng": -118.17985,
    "popularity": 210
  },
  {
    "name": "Museum of Neon Art",
    "address": "216 S Brand Blvd",
    "lat": 34.1437608,
    "lng": -118.2545011,
    "popularity": 209
  },
  {
    "name": "Beverly Hills High School",
    "address": "241 S Moreno Dr",
    "lat": 34.0614638,
    "lng": -118.410425,
    "popularity": 205
  },
  {
    "name": "Original Muscle Beach",
    "address": "1800 Ocean Front Walk",
    "lat": 34.0090094,
    "lng": -118.494764,
    "popularity": 204
  },
  {
    "name": "Tongva Park",
    "address": "1615 Ocean Ave",
    "lat": 34.0111203,
    "lng": -118.4932405,
    "popularity": 203
  },
  {
    "name": "Wells Fargo Center",
    "address": "333 S Grand Ave",
    "lat": 34.0490615,
    "lng": -118.2568694,
    "popularity": 200
  },
  {
    "name": "African American Firefighter Museum",
    "address": "1401 S Central Ave",
    "lat": 34.0284626,
    "lng": -118.2472281,
    "popularity": 191
  },
  {
    "name": "Pepperdine University",
    "address": "24,255 Pacific Coast Hwy",
    "lat": 33.977189,
    "lng": -118.3924664,
    "popularity": 190
  },
  {
    "name": "Colorado St Bridge",
    "address": "",
    "lat": 34.144553,
    "lng": -118.1645887,
    "popularity": 188
  },
  {
    "name": "Gehry House",
    "address": "1002 22nd St",
    "lat": 34.0351905,
    "lng": -118.4847312,
    "popularity": 184
  },
  {
    "name": "Mildred E Mathias Botanical Garden",
    "address": "",
    "lat": 34.065561,
    "lng": -118.441146,
    "popularity": 184
  },
  {
    "name": "Venice Beach Freakshow",
    "address": "909 Ocean Front Walk",
    "lat": 33.9904349,
    "lng": -118.4764926,
    "popularity": 183
  },
  {
    "name": "Westward Beach",
    "address": "6800 Westward Rd",
    "lat": 34.0028021,
    "lng": -118.809328,
    "popularity": 176
  },
  {
    "name": "Fowler Museum at UCLA",
    "address": "UCLA, 308 Charles E Young Dr N",
    "lat": 34.072998,
    "lng": -118.4431703,
    "popularity": 168
  },
  {
    "name": "MOCA Grand",
    "address": "250 S Grand Ave",
    "lat": 34.0532736,
    "lng": -118.2504322,
    "popularity": 167
  },
  {
    "name": "Wrigley Memorial & Botanic Gardens",
    "address": "1400 Avalon Canyon Rd",
    "lat": 33.3235685,
    "lng": -118.3420171,
    "popularity": 166
  },
  {
    "name": "Hollywood Bowl Museum",
    "address": "",
    "lat": 34.1127392,
    "lng": -118.3388562,
    "popularity": 166
  },
  {
    "name": "Wilshire Boulevard Temple",
    "address": "3663 Wilshire Blvd",
    "lat": 34.062134,
    "lng": -118.304961,
    "popularity": 166
  },
  {
    "name": "Chinese American Museum",
    "address": "Garnier Bldg, 425 N Los Angeles St",
    "lat": 34.0558393,
    "lng": -118.23909,
    "popularity": 164
  },
  {
    "name": "Abbot Kinney Boulevard",
    "address": "",
    "lat": 33.9899135,
    "lng": -118.4637973,
    "popularity": 164
  },
  {
    "name": "Broad Art Center",
    "address": "UCLA",
    "lat": 34.075885,
    "lng": -118.4409969,
    "popularity": 164
  },
  {
    "name": "Fort MacArthur Military Museum",
    "address": "3601 S Gaffey St, Angels Gate Park",
    "lat": 33.7120951,
    "lng": -118.2960341,
    "popularity": 162
  },
  {
    "name": "Malibu Hindu Temple",
    "address": "1600 Las Virgenes Canyon Rd",
    "lat": 34.0950336,
    "lng": -118.7097178,
    "popularity": 162
  },
  {
    "name": "CBS Television City",
    "address": "7800 Beverly Blvd",
    "lat": 34.0745042,
    "lng": -118.3598913,
    "popularity": 162
  },
  {
    "name": "Roundhouse Marine Studies Lab & Aquarium",
    "address": "Manhattan Beach Pier",
    "lat": 33.8833733,
    "lng": -118.4145988,
    "popularity": 160
  },
  {
    "name": "Ports O’Call Village",
    "address": "Berth 75-79 Nagoya Way",
    "lat": 33.7324309,
    "lng": -118.2767982,
    "popularity": 158
  },
  {
    "name": "Bunker Hill Steps",
    "address": "",
    "lat": 34.06426990000001,
    "lng": -118.242882,
    "popularity": 158
  },
  {
    "name": "Pasadena Museum of History",
    "address": "470 W Walnut St",
    "lat": 34.149319,
    "lng": -118.160971,
    "popularity": 156
  },
  {
    "name": "Kohn Gallery",
    "address": "1227 N Highland Ave",
    "lat": 34.0932128,
    "lng": -118.3389502,
    "popularity": 154
  },
  {
    "name": "Guinness World Records Museum",
    "address": "6764 Hollywood Blvd",
    "lat": 34.1014015,
    "lng": -118.3380435,
    "popularity": 152
  },
  {
    "name": "Ripley’s Believe It or Not!",
    "address": "6780 Hollywood Blvd",
    "lat": 34.1013818,
    "lng": -118.3385342,
    "popularity": 151
  },
  {
    "name": "Binoculars Building",
    "address": "340 Main St",
    "lat": 33.9953859,
    "lng": -118.4769277,
    "popularity": 151
  },
  {
    "name": "Wende Museum",
    "address": "10808 Culver Blvd",
    "lat": 33.99089379999999,
    "lng": -118.3821424,
    "popularity": 150
  },
  {
    "name": "Will Rogers Ranch House",
    "address": "",
    "lat": 34.054979,
    "lng": -118.5125616,
    "popularity": 149
  },
  {
    "name": "El Molino Viejo",
    "address": "1120 Old Mill Rd",
    "lat": 34.1194544,
    "lng": -118.1275079,
    "popularity": 147
  },
  {
    "name": "Bergamot Station Arts Center",
    "address": "2525 Michigan Ave",
    "lat": 34.0283148,
    "lng": -118.4676457,
    "popularity": 146
  },
  {
    "name": "California Heritage Museum",
    "address": "2612 Main St",
    "lat": 34.0019939,
    "lng": -118.4838825,
    "popularity": 145
  },
  {
    "name": "Fashion Institute of Design & Merchandising",
    "address": "919 S Grand Ave",
    "lat": 34.0441931,
    "lng": -118.2600172,
    "popularity": 145
  },
  {
    "name": "Eames House & Studio",
    "address": "203 Chautauqua Blvd",
    "lat": 34.030013,
    "lng": -118.5194459,
    "popularity": 142
  },
  {
    "name": "Inspiration Point",
    "address": "Will Rogers State Historic Park",
    "lat": 34.059658,
    "lng": -118.5138354,
    "popularity": 141
  },
  {
    "name": "Scorpion",
    "address": "",
    "lat": 34.1018161,
    "lng": -118.3357682,
    "popularity": 141
  },
  {
    "name": "Franklin D. Murphy Sculpture Garden",
    "address": "UCLA",
    "lat": 34.0751149,
    "lng": -118.4400683,
    "popularity": 140
  },
  {
    "name": "Hollywood Heritage Museum",
    "address": "2100 N Highland Ave",
    "lat": 34.1085324,
    "lng": -118.3361204,
    "popularity": 140
  },
  {
    "name": "Academy Museum",
    "address": "cnr Wilshire Blvd & Fairfax Ave",
    "lat": 34.094822,
    "lng": -118.3273329,
    "popularity": 138
  },
  {
    "name": "Brewery Art Complex",
    "address": "2100 N Main St",
    "lat": 34.0646645,
    "lng": -118.2183055,
    "popularity": 138
  },
  {
    "name": "Casino",
    "address": "1 Casino Way",
    "lat": 33.8919303,
    "lng": -118.2928,
    "popularity": 136
  },
  {
    "name": "Hauser & Wirth",
    "address": "901 E 3rd St",
    "lat": 34.046146,
    "lng": -118.23488,
    "popularity": 136
  },
  {
    "name": "Sunset Gower Studios",
    "address": "",
    "lat": 34.0972557,
    "lng": -118.3221583,
    "popularity": 132
  },
  {
    "name": "Los Angeles Police Museum",
    "address": "6045 York Blvd",
    "lat": 34.1181112,
    "lng": -118.1876876,
    "popularity": 131
  },
  {
    "name": "Wall Project",
    "address": "5900 Wilshire Blvd",
    "lat": 33.99089379999999,
    "lng": -118.3821424,
    "popularity": 130
  },
  {
    "name": "Hancock Park & Larchmont Village",
    "address": "Larchmont Blvd",
    "lat": 34.0730556,
    "lng": -118.3238889,
    "popularity": 128
  },
  {
    "name": "Ballerina Clown",
    "address": "cnr Rose Ave & Main St",
    "lat": 33.9961998,
    "lng": -118.4779734,
    "popularity": 128
  },
  {
    "name": "Jadis",
    "address": "2701 Main St",
    "lat": 34.0010167,
    "lng": -118.4823077,
    "popularity": 127
  },
  {
    "name": "Leimert Park Plaza",
    "address": "W 43rd Pl, btwn Crenshaw & Leimert Blvds",
    "lat": 34.0074183,
    "lng": -118.3271008,
    "popularity": 127
  },
  {
    "name": "Edgemar",
    "address": "2415-2449 Main St",
    "lat": 34.0035616,
    "lng": -118.4847408,
    "popularity": 126
  },
  {
    "name": "Janes House",
    "address": "6541 Hollywood Blvd",
    "lat": 34.0982048,
    "lng": -118.3595536,
    "popularity": 123
  },
  {
    "name": "MOCA Pacific Design Center",
    "address": "8687 Melrose Ave",
    "lat": 34.083203,
    "lng": -118.383484,
    "popularity": 123
  },
  {
    "name": "OUE Skyspace LA",
    "address": "US Bank Tower, 633 W 5th St",
    "lat": 34.0511063,
    "lng": -118.2543871,
    "popularity": 123
  },
  {
    "name": "Beverly Canon Gardens",
    "address": "241 N Canon Dr",
    "lat": 34.0680583,
    "lng": -118.3991949,
    "popularity": 122
  },
  {
    "name": "Museum of Tolerance",
    "address": "9786 W Pico Blvd",
    "lat": 34.053698,
    "lng": -118.4016724,
    "popularity": 122
  },
  {
    "name": "Mack & Jackie Robinson Memorial",
    "address": "cnr Garfield & Union Sts",
    "lat": 34.1473316,
    "lng": -118.1446363,
    "popularity": 118
  },
  {
    "name": "Dunbar Hotel",
    "address": "4225 S Central Ave",
    "lat": 34.0068461,
    "lng": -118.2568493,
    "popularity": 118
  },
  {
    "name": "Chapman Plaza",
    "address": "3465 W 6th St",
    "lat": 34.0637327,
    "lng": -118.2972824,
    "popularity": 118
  },
  {
    "name": "LA Louver",
    "address": "45 N Venice Blvd",
    "lat": 33.9848533,
    "lng": -118.4707781,
    "popularity": 117
  },
  {
    "name": "Culver City Arts District",
    "address": "La Cienega Blvd",
    "lat": 34.0333826,
    "lng": -118.3768739,
    "popularity": 116
  },
  {
    "name": "Craft & Folk Art Museum",
    "address": "5814 Wilshire Blvd",
    "lat": 34.062177,
    "lng": -118.3555702,
    "popularity": 116
  },
  {
    "name": "White Point-Royal Palms Beach",
    "address": "1799 Paseo del Mar",
    "lat": 33.7158171,
    "lng": -118.3186411,
    "popularity": 116
  },
  {
    "name": "Blum & Poe",
    "address": "2727 S La Cienega Blvd",
    "lat": 34.0329679,
    "lng": -118.37568,
    "popularity": 116
  },
  {
    "name": "Sunset Bronson Studios",
    "address": "",
    "lat": 34.0969357,
    "lng": -118.3168648,
    "popularity": 116
  },
  {
    "name": "O’Neill House",
    "address": "507 N Rodeo Dr",
    "lat": 34.071495,
    "lng": -118.405745,
    "popularity": 116
  },
  {
    "name": "Zuma & Westward Beach",
    "address": "",
    "lat": 34.0090906,
    "lng": -118.8153016,
    "popularity": 113
  },
  {
    "name": "Anderton Court",
    "address": "322 N Rodeo Dr",
    "lat": 34.06858020000001,
    "lng": -118.4020703,
    "popularity": 113
  },
  {
    "name": "Ace Gallery",
    "address": "5514 Wilshire Blvd, 2nd fl",
    "lat": 34.062131,
    "lng": -118.348905,
    "popularity": 112
  },
  {
    "name": "Homage to a Starry Night",
    "address": "Ocean Front Walk, at Wavecrest Ave",
    "lat": 33.9895335,
    "lng": -118.4758642,
    "popularity": 112
  },
  {
    "name": "Green Hills Memorial Park",
    "address": "27501 S Western Ave",
    "lat": 33.7704082,
    "lng": -118.3107001,
    "popularity": 112
  },
  {
    "name": "East Village Arts District",
    "address": "btwn Ocean Blvd, 7th St, Long Beach Blvd & Alamitos Ave",
    "lat": 33.7719787,
    "lng": -118.1854042,
    "popularity": 111
  },
  {
    "name": "Regen Projects",
    "address": "6750 Santa Monica Blvd",
    "lat": 34.09058840000001,
    "lng": -118.3379335,
    "popularity": 111
  },
  {
    "name": "Brady Bunch House",
    "address": "11,222 Dilling St",
    "lat": 34.1430553,
    "lng": -118.3756193,
    "popularity": 110
  },
  {
    "name": "Williamson Gallery",
    "address": "Art Center College of Design",
    "lat": 34.1687381,
    "lng": -118.1850603,
    "popularity": 109
  },
  {
    "name": "Tournament House & Wrigley Gardens",
    "address": "391 S Orange Grove Blvd",
    "lat": 34.139214,
    "lng": -118.160146,
    "popularity": 108
  },
  {
    "name": "América Tropical Interpretive Center",
    "address": "125 Paseo De La Plaza",
    "lat": 34.0576697,
    "lng": -118.2380558,
    "popularity": 106
  },
  {
    "name": "Mar Vista Tract",
    "address": "Moore St",
    "lat": 34.0494398,
    "lng": -118.3932112,
    "popularity": 105
  },
  {
    "name": "USC Fisher Museum of Art",
    "address": "823 W Exposition Blvd, Harris Hall",
    "lat": 34.0188155,
    "lng": -118.2873177,
    "popularity": 105
  },
  {
    "name": "South Venice Beach",
    "address": "",
    "lat": 33.994004,
    "lng": -118.4776484,
    "popularity": 104
  },
  {
    "name": "Museum of Broken Relationships",
    "address": "6751 Hollywood Blvd",
    "lat": 34.1017702,
    "lng": -118.3376512,
    "popularity": 103
  },
  {
    "name": "Italian American Museum of Los Angeles",
    "address": "644 N Main St",
    "lat": 34.0580121,
    "lng": -118.2377301,
    "popularity": 102
  },
  {
    "name": "Villa Aurora",
    "address": "520 Paseo Miramar",
    "lat": 34.0462586,
    "lng": -118.5559306,
    "popularity": 102
  },
  {
    "name": "Robert Reynolds Gallery",
    "address": "408 S Spring St",
    "lat": 34.0485597,
    "lng": -118.2481581,
    "popularity": 102
  },
  {
    "name": "Pasadena Civic Center Area",
    "address": "",
    "lat": 34.1441844,
    "lng": -118.1434133,
    "popularity": 102
  },
  {
    "name": "Legacy Park",
    "address": "23,500 Civic Center Way",
    "lat": 34.059967,
    "lng": -118.440837,
    "popularity": 102
  },
  {
    "name": "Watts Labor Community Action Committee",
    "address": "10950 S Central Ave",
    "lat": 33.9363229,
    "lng": -118.2533004,
    "popularity": 101
  },
  {
    "name": "Zimmer Children’s Museum",
    "address": "6505 Wilshire Blvd",
    "lat": 34.0642254,
    "lng": -118.3701274,
    "popularity": 101
  },
  {
    "name": "UCLA Film & TV Archive",
    "address": "Powell Library, UCLA",
    "lat": 34.0764923,
    "lng": -118.4399493,
    "popularity": 100
  },
  {
    "name": "International Chess Park",
    "address": "",
    "lat": 34.009308,
    "lng": -118.4948255,
    "popularity": 100
  },
  {
    "name": "C.A.V.E.",
    "address": "55 N Venice Blvd",
    "lat": 34.0522342,
    "lng": -118.2436849,
    "popularity": 100
  },
  {
    "name": "Tom of Finland House",
    "address": "1421 Laveta Tce",
    "lat": 34.0783275,
    "lng": -118.2546776,
    "popularity": 100
  },
  {
    "name": "Frederick R Weisman Art Foundation",
    "address": "265 N Carolwood Dr",
    "lat": 34.0828038,
    "lng": -118.4273734,
    "popularity": 100
  },
  {
    "name": "Forest Lawn Memorial Park – Hollywood Hills",
    "address": "6300 Forest Lawn Dr",
    "lat": 34.1498093,
    "lng": -118.3269101,
    "popularity": 100
  },
  {
    "name": "Central Avenue",
    "address": "",
    "lat": 34.3121626,
    "lng": -118.4806781,
    "popularity": 100
  },
  {
    "name": "Forest Lawn Memorial Park – Glendale",
    "address": "1712 S Glendale Ave",
    "lat": 34.1247166,
    "lng": -118.2515038,
    "popularity": 100
  },
  {
    "name": "Frederick R Weisman Museum of Art",
    "address": "24255 Pacific Coast Hwy, Malibu",
    "lat": 34.03928,
    "lng": -118.707989,
    "popularity": 100
  },
  {
    "name": "Axiom Gallery",
    "address": "2801 Main St",
    "lat": 34.000365,
    "lng": -118.481543,
    "popularity": 100
  },
  {
    "name": "Village at Ed Gould Plaza",
    "address": "1125 N McCadden Pl",
    "lat": 34.0918673,
    "lng": -118.3376894,
    "popularity": 100
  },
  {
    "name": "Art + Practice",
    "address": "3401 W 43rd Pl",
    "lat": 34.004523,
    "lng": -118.3317436,
    "popularity": 100
  }
]
