[
  {
    "name": "Bellagio",
    "address": "3600 S Las Vegas Blvd",
    "lat": 36.1126264,
    "lng": -115.1767051,
    "popularity": 23864
  },
  {
    "name": "Venetian",
    "address": "3355 S Las Vegas Blvd",
    "lat": 36.121174,
    "lng": -115.1696526,
    "popularity": 14995
  },
  {
    "name": "Paris Las Vegas",
    "address": "3655 S Las Vegas Blvd",
    "lat": 36.1125414,
    "lng": -115.1706705,
    "popularity": 12414
  },
  {
    "name": "Caesars Palace",
    "address": "3570 S Las Vegas Blvd",
    "lat": 36.1161685,
    "lng": -115.174499,
    "popularity": 11137
  },
  {
    "name": "Mirage",
    "address": "3400 S Las Vegas Blvd",
    "lat": 36.1211957,
    "lng": -115.1740735,
    "popularity": 9114
  },
  {
    "name": "MGM Grand",
    "address": "3799 S Las Vegas Blvd",
    "lat": 36.102576,
    "lng": -115.1702533,
    "popularity": 7343
  },
  {
    "name": "Luxor",
    "address": "3900 S Las Vegas Blvd",
    "lat": 36.09551,
    "lng": -115.1760672,
    "popularity": 7126
  },
  {
    "name": "Mandalay Bay",
    "address": "3950 S Las Vegas Blvd",
    "lat": 36.0918777,
    "lng": -115.175245,
    "popularity": 7095
  },
  {
    "name": "Stratosphere",
    "address": "2000 S Las Vegas Blvd",
    "lat": 36.147247,
    "lng": -115.1560309,
    "popularity": 6708
  },
  {
    "name": "Fremont Street Experience",
    "address": "Fremont St Mall",
    "lat": 36.1707881,
    "lng": -115.1442705,
    "popularity": 5358
  },
  {
    "name": "Cosmopolitan",
    "address": "3708 S Las Vegas Blvd",
    "lat": 36.1097553,
    "lng": -115.1738769,
    "popularity": 5057
  },
  {
    "name": "Flamingo",
    "address": "3555 S Las Vegas Blvd",
    "lat": 36.1164409,
    "lng": -115.1707917,
    "popularity": 5012
  },
  {
    "name": "New Yorkâ€“New York",
    "address": "3790 S Las Vegas Blvd",
    "lat": 36.1023715,
    "lng": -115.1745559,
    "popularity": 4535
  },
  {
    "name": "Valley of Fire State Park",
    "address": "29450 Valley of Fire Hwy",
    "lat": 36.4855234,
    "lng": -114.5313116,
    "popularity": 4429
  },
  {
    "name": "Aria",
    "address": "3730 S Las Vegas Blvd",
    "lat": 36.1069373,
    "lng": -115.1781703,
    "popularity": 4195
  },
  {
    "name": "Palazzo",
    "address": "3325 S Las Vegas Blvd",
    "lat": 36.1239675,
    "lng": -115.167916,
    "popularity": 4113
  },
  {
    "name": "Hard Rock",
    "address": "4455 Paradise Rd",
    "lat": 36.10880520000001,
    "lng": -115.1537337,
    "popularity": 4087
  },
  {
    "name": "Treasure Island",
    "address": "3300 S Las Vegas Blvd",
    "lat": 36.1247446,
    "lng": -115.1720809,
    "popularity": 3803
  },
  {
    "name": "Excalibur",
    "address": "3850 S Las Vegas Blvd",
    "lat": 36.0989822,
    "lng": -115.1754724,
    "popularity": 3742
  },
  {
    "name": "Planet Hollywood",
    "address": "3667 S Las Vegas Blvd",
    "lat": 36.1099696,
    "lng": -115.1700646,
    "popularity": 3639
  },
  {
    "name": "CityCenter",
    "address": "3780 S Las Vegas Blvd",
    "lat": 36.1072531,
    "lng": -115.1756164,
    "popularity": 3628
  },
  {
    "name": "Palms",
    "address": "4321 W Flamingo Rd",
    "lat": 36.1144832,
    "lng": -115.1948136,
    "popularity": 3341
  },
  {
    "name": "Monte Carlo",
    "address": "3770 S Las Vegas Blvd",
    "lat": 36.1046092,
    "lng": -115.1760289,
    "popularity": 2890
  },
  {
    "name": "Rio",
    "address": "3700 W Flamingo Rd",
    "lat": 36.1175148,
    "lng": -115.1881593,
    "popularity": 2836
  },
  {
    "name": "Tropicana",
    "address": "3801 S Las Vegas Blvd",
    "lat": 36.099642,
    "lng": -115.183376,
    "popularity": 2592
  },
  {
    "name": "Neon Museum (Neon Boneyard)",
    "address": "770 N Las Vegas Blvd",
    "lat": 36.1769792,
    "lng": -115.1353151,
    "popularity": 2571
  },
  {
    "name": "Circus Circus",
    "address": "2880 S Las Vegas Blvd",
    "lat": 36.1371724,
    "lng": -115.1642657,
    "popularity": 2346
  },
  {
    "name": "Fountains of Bellagio",
    "address": "",
    "lat": 36.112962,
    "lng": -115.174173,
    "popularity": 2240
  },
  {
    "name": "The Park",
    "address": "3782 S Las Vegas Blvd",
    "lat": 36.10352,
    "lng": -115.174608,
    "popularity": 2021
  },
  {
    "name": "Madame Tussauds",
    "address": "3377 S Las Vegas Blvd #2001",
    "lat": 36.12131,
    "lng": -115.171166,
    "popularity": 1785
  },
  {
    "name": "High Roller",
    "address": "",
    "lat": 36.1176372,
    "lng": -115.1682023,
    "popularity": 1686
  },
  {
    "name": "Plaza",
    "address": "1 S Main St",
    "lat": 36.1718879,
    "lng": -115.1466453,
    "popularity": 1532
  },
  {
    "name": "Mirage Volcano",
    "address": "",
    "lat": 36.1215608,
    "lng": -115.1723747,
    "popularity": 1440
  },
  {
    "name": "Harrah's",
    "address": "3475 S Las Vegas Blvd",
    "lat": 36.1194645,
    "lng": -115.1716391,
    "popularity": 1359
  },
  {
    "name": "Bally's",
    "address": "3645 S Las Vegas Blvd",
    "lat": 36.1140611,
    "lng": -115.170627,
    "popularity": 1358
  },
  {
    "name": "Golden Nugget",
    "address": "129 Fremont St E",
    "lat": 36.1700166,
    "lng": -115.1447934,
    "popularity": 1344
  },
  {
    "name": "Nevada State Museum",
    "address": "309 S Valley View Blvd",
    "lat": 36.172284,
    "lng": -115.190107,
    "popularity": 1273
  },
  {
    "name": "Pinball Hall of Fame",
    "address": "1610 E Tropicana Ave",
    "lat": 36.1013142,
    "lng": -115.1305174,
    "popularity": 1134
  },
  {
    "name": "Orleans",
    "address": "4500 W Tropicana Ave",
    "lat": 36.1026234,
    "lng": -115.2019354,
    "popularity": 1106
  },
  {
    "name": "Springs Preserve",
    "address": "333 S Valley View Blvd",
    "lat": 36.171272,
    "lng": -115.1897807,
    "popularity": 1106
  },
  {
    "name": "Bellagio Conservatory & Botanical Gardens",
    "address": "",
    "lat": 36.1120006,
    "lng": -115.176516,
    "popularity": 1060
  },
  {
    "name": "Shark Reef Aquarium",
    "address": "3950 S Las Vegas Blvd",
    "lat": 36.0891222,
    "lng": -115.176112,
    "popularity": 1008
  },
  {
    "name": "Wynn & Encore Casinos",
    "address": "3131 S Las Vegas Blvd",
    "lat": 36.1290754,
    "lng": -115.1652896,
    "popularity": 985
  },
  {
    "name": "Welcome to Las Vegas Sign",
    "address": "5200 S Las Vegas Blvd",
    "lat": 36.0820594,
    "lng": -115.1727871,
    "popularity": 895
  },
  {
    "name": "Vegas Weddings",
    "address": "555 S 3rd St",
    "lat": 36.164473,
    "lng": -115.146547,
    "popularity": 692
  },
  {
    "name": "El Cortez",
    "address": "600 Fremont St E",
    "lat": 36.1691085,
    "lng": -115.138862,
    "popularity": 636
  },
  {
    "name": "Bodies",
    "address": "",
    "lat": 36.095449,
    "lng": -115.175952,
    "popularity": 617
  },
  {
    "name": "Art Square",
    "address": "1017 & 1025 S 1st St",
    "lat": 36.1595711,
    "lng": -115.1523871,
    "popularity": 504
  },
  {
    "name": "Container Park",
    "address": "707 Fremont St E",
    "lat": 36.167451,
    "lng": -115.1384266,
    "popularity": 502
  },
  {
    "name": "Casino Royale",
    "address": "3411 S Las Vegas Blvd",
    "lat": 36.1206147,
    "lng": -115.1719738,
    "popularity": 461
  },
  {
    "name": "Burlesque Hall of Fame",
    "address": "1017 S 1st St #195",
    "lat": 36.159937,
    "lng": -115.1521327,
    "popularity": 458
  },
  {
    "name": "Mob Museum",
    "address": "300 Stewart Ave",
    "lat": 36.1728146,
    "lng": -115.1412425,
    "popularity": 430
  },
  {
    "name": "Downtown Grand",
    "address": "206 N 3rd St",
    "lat": 36.17214600000001,
    "lng": -115.141409,
    "popularity": 423
  },
  {
    "name": "Little Church of the West",
    "address": "4617 S Las Vegas Blvd",
    "lat": 36.08608150000001,
    "lng": -115.1723093,
    "popularity": 332
  },
  {
    "name": "Auto Collections Vegas Car Museum",
    "address": "",
    "lat": 36.1183053,
    "lng": -115.1700178,
    "popularity": 314
  },
  {
    "name": "Main Street Station",
    "address": "200 N Main St",
    "lat": 36.1743158,
    "lng": -115.145311,
    "popularity": 313
  },
  {
    "name": "LINQ Casino",
    "address": "3535 S Las Vegas Blvd",
    "lat": 36.1181537,
    "lng": -115.1724421,
    "popularity": 272
  },
  {
    "name": "National Atomic Testing Museum",
    "address": "755 Flamingo Rd E",
    "lat": 36.113974,
    "lng": -115.1484668,
    "popularity": 271
  },
  {
    "name": "Flamingo Wildlife Habitat",
    "address": "",
    "lat": 36.1166041,
    "lng": -115.1711539,
    "popularity": 252
  },
  {
    "name": "Emergency Arts",
    "address": "520 Fremont St E",
    "lat": 36.1689349,
    "lng": -115.1396298,
    "popularity": 241
  },
  {
    "name": "Old Las Vegas Mormon Fort State Park",
    "address": "500 E Washington Ave",
    "lat": 36.1806609,
    "lng": -115.133551,
    "popularity": 233
  },
  {
    "name": "LINQ Promenade",
    "address": "",
    "lat": 36.1181537,
    "lng": -115.1724421,
    "popularity": 232
  },
  {
    "name": "Eiffel Tower Experience",
    "address": "",
    "lat": 36.11231,
    "lng": -115.1703966,
    "popularity": 226
  },
  {
    "name": "Las Vegas Natural History Museum",
    "address": "900 N Las Vegas Blvd",
    "lat": 36.1798988,
    "lng": -115.1338615,
    "popularity": 220
  },
  {
    "name": "Mandalay Bay Beach",
    "address": "",
    "lat": 36.090259,
    "lng": -115.175821,
    "popularity": 211
  },
  {
    "name": "Gold Coast",
    "address": "4000 W Flamingo Rd",
    "lat": 36.1165742,
    "lng": -115.1915967,
    "popularity": 202
  },
  {
    "name": "Slots-A-Fun",
    "address": "2890 S Las Vegas Blvd",
    "lat": 36.1359892,
    "lng": -115.1631234,
    "popularity": 202
  },
  {
    "name": "Graceland Wedding Chapel",
    "address": "619 S Las Vegas Blvd",
    "lat": 36.1626777,
    "lng": -115.1446844,
    "popularity": 176
  },
  {
    "name": "CityCenter Fine Art Collection",
    "address": "",
    "lat": 36.1073485,
    "lng": -115.1765836,
    "popularity": 174
  },
  {
    "name": "Guardian Angel Cathedral",
    "address": "302 Cathedral Way",
    "lat": 36.1305244,
    "lng": -115.1634753,
    "popularity": 161
  },
  {
    "name": "Desert National Wildlife Refuge",
    "address": "16001 Corn Creek Rd",
    "lat": 36.4384719,
    "lng": -115.358621,
    "popularity": 158
  },
  {
    "name": "Binion's Gambling Hall",
    "address": "128 Fremont St E",
    "lat": 36.1715456,
    "lng": -115.1442596,
    "popularity": 150
  },
  {
    "name": "Golden Gate",
    "address": "1 Fremont St",
    "lat": 36.119242,
    "lng": -115.2525585,
    "popularity": 136
  },
  {
    "name": "Viva Las Vegas Wedding Chapel",
    "address": "1205 S Las Vegas Blvd",
    "lat": 36.1565205,
    "lng": -115.1484556,
    "popularity": 134
  },
  {
    "name": "Arts Factory",
    "address": "107 E Charleston Blvd",
    "lat": 36.158998,
    "lng": -115.152899,
    "popularity": 132
  },
  {
    "name": "Rampart Casino",
    "address": "221 N Rampart Blvd, Resort at Summerlin",
    "lat": 36.175747,
    "lng": -115.2917528,
    "popularity": 128
  },
  {
    "name": "Bellagio Gallery of Fine Art",
    "address": "",
    "lat": 36.1128733,
    "lng": -115.1776707,
    "popularity": 117
  },
  {
    "name": "Gilcrease Orchard",
    "address": "7800 North Tenaya",
    "lat": 36.3033931,
    "lng": -115.2478694,
    "popularity": 116
  },
  {
    "name": "Big Apple Roller Coaster",
    "address": "",
    "lat": 36.101965,
    "lng": -115.173878,
    "popularity": 113
  },
  {
    "name": "Lucky Dragon",
    "address": "300 W Sahara Ave",
    "lat": 36.1439898,
    "lng": -115.1603205,
    "popularity": 110
  },
  {
    "name": "McCarran International Airport Viewing Area",
    "address": "Sunset Rd E",
    "lat": 36.0839998,
    "lng": -115.1537389,
    "popularity": 108
  },
  {
    "name": "Discovery Children's Museum",
    "address": "360 Promenade Pl",
    "lat": 36.1686597,
    "lng": -115.1525353,
    "popularity": 104
  },
  {
    "name": "Tule Springs Fossil Beds National Monument",
    "address": "",
    "lat": 36.3378309,
    "lng": -115.2784752,
    "popularity": 103
  },
  {
    "name": "Big Apple Arcade",
    "address": "",
    "lat": 36.101965,
    "lng": -115.173878,
    "popularity": 100
  },
  {
    "name": "Titanic: The Artifact Exhibition",
    "address": "",
    "lat": 36.095599,
    "lng": -115.175768,
    "popularity": 100
  }
]
